rastid,stop_id,stop_name
0,8504571,La Sauge LNM
1,8581750,"Cudrefin, La Sauge"
1,8504571,La Sauge LNM
2,8570530,"Cudrefin, place de la Tour"
3,8579746,"Cudrefin, camping"
4,8579746,"Cudrefin, camping"
5,8504984,"Lugnorre, place du Pommeré"
6,8504984,"Lugnorre, place du Pommeré"
7,8570530,"Cudrefin, place de la Tour"
8,8570530,"Cudrefin, place de la Tour"
8,8583829,"Cudrefin, Le Moulin"
8,8570529,"Cudrefin, Vers-chez-Jacot"
9,8504984,"Lugnorre, place du Pommeré"
10,8583829,"Cudrefin, Le Moulin"
11,8583829,"Cudrefin, Le Moulin"
11,8570529,"Cudrefin, Vers-chez-Jacot"
12,8570529,"Cudrefin, Vers-chez-Jacot"
12,8570528,"Montet (Vully), village"
13,8583709,"Montet (Vully), La Fenette"
14,8504984,"Lugnorre, place du Pommeré"
15,8504984,"Lugnorre, place du Pommeré"
16,8583709,"Montet (Vully), La Fenette"
16,8570528,"Montet (Vully), village"
17,8583709,"Montet (Vully), La Fenette"
17,8570528,"Montet (Vully), village"
18,8504892,"Mur, village"
19,8504892,"Mur, village"
20,8504984,"Lugnorre, place du Pommeré"
21,8570527,Champmartin
22,8570527,Champmartin
23,8583709,"Montet (Vully), La Fenette"
24,8570511,"Guévaux, croisée"
25,8570527,Champmartin
26,8570511,"Guévaux, croisée"
27,8595200,"Travers, Verger"
28,8570523,"Vallamand-Dessus, pl. village"
29,8570523,"Vallamand-Dessus, pl. village"
29,8583725,"Vallamand-Dessous, Garinettes"
30,8570526,"Chabrey, village"
31,8570525,"Montmagny, croisée"
32,8570525,"Montmagny, croisée"
33,8570522,"Vallamand-Dessous, village"
33,8504575,Vallamand
34,8504575,Vallamand
35,8504285,Couvet
36,8504562,Portalban
37,8504547,"Portalban, village"
38,8570526,"Chabrey, village"
39,8570526,"Chabrey, village"
40,8570525,"Montmagny, croisée"
41,8570524,"Bellerive VD, village"
41,8579745,"Salavaux, Cotterd"
42,8570524,"Bellerive VD, village"
43,8570522,"Vallamand-Dessous, village"
43,8504575,Vallamand
44,8507666,"Provence, Le Couvent"
45,8507666,"Provence, Le Couvent"
46,8504547,"Portalban, village"
47,8504547,"Portalban, village"
48,8570519,"Constantine, collège"
49,8570519,"Constantine, collège"
50,8579745,"Salavaux, Cotterd"
50,8570521,"Salavaux, poste"
51,8570521,"Salavaux, poste"
52,8507666,"Provence, Le Couvent"
53,8577832,"Delley, école"
54,8570519,"Constantine, collège"
55,8580758,"Salavaux, Le Pont"
56,8580758,"Salavaux, Le Pont"
57,8530821,Faoug débarcadère
58,8583452,"Murten, Merlachfeld"
59,8570333,"Montalchez, centre du village"
60,8577831,"Delley, En Roche"
61,8570517,"Villars-le-Grand, village"
62,8530821,Faoug débarcadère
63,8530821,Faoug débarcadère
64,8595536,"Gletterens, lac"
65,8595536,"Gletterens, lac"
66,8595536,"Gletterens, lac"
67,8570517,"Villars-le-Grand, village"
68,8570517,"Villars-le-Grand, village"
69,8583515,"Avenches, plage"
70,8504127,Faoug
71,8504127,Faoug
72,8504127,Faoug
73,8570333,"Montalchez, centre du village"
73,8570332,"Montalchez, La Comballaz"
74,8570517,"Villars-le-Grand, village"
75,8595680,"Courgevaux, village"
76,8570272,"Provence, Vuissens"
77,8570332,"Montalchez, La Comballaz"
77,8570333,"Montalchez, centre du village"
78,8577834,"Gletterens, village"
79,8577834,"Gletterens, village"
80,8577830,"St-Aubin FR, Le-Haut"
81,8504887,"St-Aubin FR, église"
82,8570272,"Provence, Vuissens"
83,8570284,"Mutrux, Le Ravin (Sylvabella)"
84,8570284,"Mutrux, Le Ravin (Sylvabella)"
85,8507955,"Provence, poste"
85,8570286,"Provence, anc. poste"
85,8570287,"Provence, village"
85,8570285,"Provence, La Grangette"
86,8570331,"Fresens, haut du village"
86,8570330,"Fresens, village"
87,8570416,"Chevroux, port"
87,8570415,"Chevroux, village"
88,8577834,"Gletterens, village"
89,8577834,"Gletterens, village"
90,8577830,"St-Aubin FR, Le-Haut"
91,8504887,"St-Aubin FR, église"
92,8577829,"St-Aubin FR, bif."
93,8583520,"Avenches, route du Lac"
94,8583520,"Avenches, route du Lac"
95,8581065,"Fresens, bas du village"
95,8570330,"Fresens, village"
96,8570415,"Chevroux, village"
97,8583485,"Chevroux, La Motte"
97,8570415,"Chevroux, village"
98,8570413,"Vallon, village"
99,8570413,"Vallon, village"
100,8504887,"St-Aubin FR, église"
101,8577829,"St-Aubin FR, bif."
102,8577829,"St-Aubin FR, bif."
103,8570515,"Avenches, Haras Fédéral"
104,8504126,Avenches
104,8570514,"Avenches, gare"
105,8583519,"Avenches, Pré-Vert"
106,8504646,"Villarepos, centre"
107,8504646,"Villarepos, centre"
108,8507691,"Mutrux, anc. poste"
109,8570413,"Vallon, village"
110,8577643,"Missy, nord"
111,8577829,"St-Aubin FR, bif."
112,8570515,"Avenches, Haras Fédéral"
113,8583516,"Avenches, Milavy"
114,8570514,"Avenches, gare"
114,8579799,"Avenches, Collège Sous-Ville"
114,8504126,Avenches
114,8583895,"Avenches, EMS Marc-Aurèle"
114,8583894,"Avenches, Hôtel de Ville"
115,8583895,"Avenches, EMS Marc-Aurèle"
116,8577824,"Villarepos, La Tornalla"
117,8577824,"Villarepos, La Tornalla"
118,8504646,"Villarepos, centre"
119,8570329,"Vernéaz, croisée"
120,8582050,"Vaumarcus, milieu du village"
120,8581068,"Vaumarcus, haut du village"
121,8504243,Vaumarcus débarcadère
121,8582050,"Vaumarcus, milieu du village"
121,8575841,"Vaumarcus, bas du village"
121,8570328,"Vaumarcus, gare"
122,8577637,"Forel FR, village"
123,8577637,"Forel FR, village"
124,8557020,"Grandcour, rte de Chevroux"
125,8577641,Ressudens
126,8570412,"Vallon, Musée romain"
127,8504973,"Missy, village"
128,8504973,"Missy, village"
129,8583516,"Avenches, Milavy"
129,8583723,"Avenches, Le Paon"
129,8579799,"Avenches, Collège Sous-Ville"
130,8583894,"Avenches, Hôtel de Ville"
130,8579799,"Avenches, Collège Sous-Ville"
130,8583517,"Avenches, Joli-Val"
130,8583518,"Avenches, Montmezard"
130,8583514,"Avenches, Bibracte"
130,8577825,"Avenches, Faubourg"
131,8504886,"Donatyre, village"
132,8504886,"Donatyre, village"
133,8504646,"Villarepos, centre"
134,8507656,"Concise, Les Biolles"
134,8570283,"Concise, Platet-Christine"
135,8577636,"Forel FR, La Vernase"
136,8577638,"Forel FR, Les Planches"
137,8557020,"Grandcour, rte de Chevroux"
137,8504986,"Grandcour, poste"
138,8504986,"Grandcour, poste"
139,8570412,"Vallon, Musée romain"
140,8504125,Domdidier
141,8577828,"Domdidier, gare"
142,8583723,"Avenches, Le Paon"
143,8583517,"Avenches, Joli-Val"
144,8583517,"Avenches, Joli-Val"
145,8504886,"Donatyre, village"
146,8504886,"Donatyre, village"
147,8577635,"Forel FR, Forestel"
148,8583724,"Grandcour, rte d'Estavayer"
149,8583724,"Grandcour, rte d'Estavayer"
150,8577641,Ressudens
151,8504125,Domdidier
152,8577828,"Domdidier, gare"
152,8504125,Domdidier
153,8577828,"Domdidier, gare"
153,8504125,Domdidier
153,8588723,"Domdidier, CO"
154,8588723,"Domdidier, CO"
155,8588723,"Domdidier, CO"
156,8507680,"Fontanezier, bas du village"
157,8504719,"Autavaux, bif."
158,8570410,"Rueyres-les-Prés, village"
158,8577639,"Rueyres-les-Prés, bif."
159,8504125,Domdidier
160,8588723,"Domdidier, CO"
161,8588723,"Domdidier, CO"
162,8581510,"Mauborget, anc. poste"
163,8507680,"Fontanezier, bas du village"
164,8570281,"Concise, haut du village"
165,8577633,"Montbrelloz, bif."
166,8504156,"Rueyres-les-Prés, anc. poste"
167,8504156,"Rueyres-les-Prés, anc. poste"
167,8595537,"Rueyres-les-Prés, école"
167,8570410,"Rueyres-les-Prés, village"
168,8588723,"Domdidier, CO"
169,8583726,"Oleyres, Les Carrières"
170,8577822,"Courtion, Oleyres bif."
170,8577823,"Courtion, Moulin-Neuf"
171,8504277,"Mauborget, bif. La Magnenaz"
172,8570269,"Mauborget, village"
172,8581510,"Mauborget, anc. poste"
173,8507680,"Fontanezier, bas du village"
174,8570280,"Concise, Bas-du-Pavé"
175,8570280,"Concise, Bas-du-Pavé"
175,8583309,"Concise, village"
176,8577629,"Rueyres-les-Prés, La Chavanne"
177,8577641,Ressudens
178,8504124,Dompierre
179,8504124,Dompierre
180,8504124,Dompierre
181,8583521,"Oleyres, collège"
181,8583726,"Oleyres, Les Carrières"
182,8583726,"Oleyres, Les Carrières"
182,8583521,"Oleyres, collège"
183,8577822,"Courtion, Oleyres bif."
184,8504900,"Courtion, bif."
185,8577835,"Courtion, école"
185,8504900,"Courtion, bif."
186,8580481,"Villars-Burquin, Douvaz"
186,8570268,"Villars-Burquin, Bassugnet"
186,8570267,"Villars-Burquin, La Forge"
187,8507968,"Villars-Burquin, pl. fontaine"
187,8570265,"Villars-Burquin, Laiterie"
187,8580481,"Villars-Burquin, Douvaz"
187,8507684,"Villars-Burquin, Grange-Meule"
187,8570267,"Villars-Burquin, La Forge"
188,8581511,"Romairon, collège"
188,8570266,"Vaugondry, bif."
189,8507958,"Romairon, village"
189,8581511,"Romairon, collège"
190,8507680,"Fontanezier, bas du village"
191,8507680,"Fontanezier, bas du village"
192,8507695,"Onnens VD, croisée"
193,8507664,"Corcelles-près-Concise,village"
194,8507664,"Corcelles-près-Concise,village"
195,8583309,"Concise, village"
195,8504556,Concise LNM
196,8577629,"Rueyres-les-Prés, La Chavanne"
197,8504124,Dompierre
198,8504124,Dompierre
199,8504124,Dompierre
200,8504124,Dompierre
201,8583521,"Oleyres, collège"
202,8583521,"Oleyres, collège"
203,8504864,"Misery, village"
204,8504864,"Misery, village"
205,8504274,"Bullet, Les Cluds"
206,8570265,"Villars-Burquin, Laiterie"
206,8507968,"Villars-Burquin, pl. fontaine"
206,8583885,"Villars-Burquin, Les Oches"
207,8507695,"Onnens VD, croisée"
208,8507664,"Corcelles-près-Concise,village"
209,8577628,Morens FR
210,8577628,Morens FR
211,8504123,Corcelles-Nord
212,8504124,Dompierre
213,8583521,"Oleyres, collège"
214,8571781,"La Vraconnaz, bif. nord"
215,8504273,"Bullet, bif. Les Cluds"
216,8583823,"Grandevent, Battoir"
217,8580463,"Grandevent, village"
217,8583823,"Grandevent, Battoir"
218,8583885,"Villars-Burquin, Les Oches"
219,8570275,"Bonvillars, La Cour"
220,8507658,"Bonvillars, village"
220,8582968,"Bonvillars, bas du village"
221,8507695,"Onnens VD, croisée"
222,8577628,Morens FR
223,8504124,Dompierre
224,8504137,Léchelles
225,8583521,"Oleyres, collège"
226,8583521,"Oleyres, collège"
227,8583823,"Grandevent, Battoir"
228,8507679,"Fontaines-sur-Grandson,collège"
229,8507679,"Fontaines-sur-Grandson,collège"
230,8504989,"Champagne, collège"
231,8570275,"Bonvillars, La Cour"
231,8507678,"Bonvillars, Flusel"
232,8582968,"Bonvillars, bas du village"
232,8507658,"Bonvillars, village"
233,8507695,"Onnens VD, croisée"
234,8577628,Morens FR
235,8583707,"Payerne, Champ Aubert"
236,8504123,Corcelles-Nord
237,8504137,Léchelles
238,8583521,"Oleyres, collège"
239,8571783,La Chaux-de-Ste-Croix
240,8504271,"Ste-Croix, Crêt-Junod"
241,8504271,"Ste-Croix, Crêt-Junod"
241,8579287,"Les Rasses, Grand-Hôtel"
241,8504299,"Les Rasses, village"
242,8504299,"Les Rasses, village"
243,8587261,"Bullet, Grande Salle"
244,8504272,"Bullet, village"
245,8582422,"Fiez, collège"
246,8504989,"Champagne, collège"
247,8504989,"Champagne, collège"
247,8507678,"Bonvillars, Flusel"
248,8582968,"Bonvillars, bas du village"
249,8507695,"Onnens VD, croisée"
250,8583707,"Payerne, Champ Aubert"
251,8583707,"Payerne, Champ Aubert"
252,8504123,Corcelles-Nord
253,8504123,Corcelles-Nord
254,8504123,Corcelles-Nord
255,8504123,Corcelles-Nord
256,8583200,"Cousset, centre sportif"
257,8504137,Léchelles
258,8504137,Léchelles
259,8587594,"L'Auberson, Vers-chz-ls-Jaques"
260,8587594,"L'Auberson, Vers-chz-ls-Jaques"
261,8579075,"L'Auberson, musée"
262,8571784,"L'Auberson, Vers-chez-Gueissaz"
263,8579071,"L'Auberson, Vers-le-Bois"
264,8579719,"Ste-Croix, av. de Neuchâtel"
264,8579284,"Ste-Croix, place du Pont"
264,8593786,"Ste-Croix, av. des Gittaz"
265,8579286,"Ste-Croix, rue des Rasses"
265,8571787,"Ste-Croix, poste"
265,8579284,"Ste-Croix, place du Pont"
266,8579286,"Ste-Croix, rue des Rasses"
267,8504290,"Ste-Croix, Les Replans"
268,8504271,"Ste-Croix, Crêt-Junod"
268,8504270,"Ste-Croix, Ma Retraite"
269,8579287,"Les Rasses, Grand-Hôtel"
269,8504271,"Ste-Croix, Crêt-Junod"
270,8587261,"Bullet, Grande Salle"
271,8507694,"Novalles, collège"
272,8582422,"Fiez, collège"
272,8507677,"Fiez, village"
273,8507677,"Fiez, village"
274,8570274,"Champagne, Le Moulin"
275,8583707,"Payerne, Champ Aubert"
276,8583707,"Payerne, Champ Aubert"
277,8504780,"Payerne, gare"
278,8504135,Corcelles-Sud
279,8504135,Corcelles-Sud
280,8504135,Corcelles-Sud
281,8504135,Corcelles-Sud
282,8504137,Léchelles
283,8587594,"L'Auberson, Vers-chz-ls-Jaques"
284,8593785,"L'Auberson, ch. des Grangettes"
284,8587594,"L'Auberson, Vers-chz-ls-Jaques"
285,8593783,"L'Auberson, ch. du Carre"
285,8579077,"L'Auberson, école"
285,8593784,"L'Auberson, Les Sapins"
286,8593784,"L'Auberson, Les Sapins"
286,8579075,"L'Auberson, musée"
287,8593786,"Ste-Croix, av. des Gittaz"
288,8571788,"Ste-Croix, gare"
288,8593786,"Ste-Croix, av. des Gittaz"
288,8504298,Ste-Croix
288,8571787,"Ste-Croix, poste"
289,8571788,"Ste-Croix, gare"
289,8579286,"Ste-Croix, rue des Rasses"
289,8504298,Ste-Croix
289,8571787,"Ste-Croix, poste"
289,8579282,"Ste-Croix, La Charmille"
290,8579286,"Ste-Croix, rue des Rasses"
291,8504290,"Ste-Croix, Les Replans"
292,8504270,"Ste-Croix, Ma Retraite"
293,8570262,"Vugelles, croisée"
294,8507950,"Grandson, Péroset"
295,8570406,"Payerne, fabr. Fivaz"
296,8570406,"Payerne, fabr. Fivaz"
297,8504780,"Payerne, gare"
298,8504999,"Payerne, hôpital"
299,8504135,Corcelles-Sud
300,8581635,"Cousset, gare"
301,8593785,"L'Auberson, ch. des Grangettes"
301,8587594,"L'Auberson, Vers-chz-ls-Jaques"
302,8593783,"L'Auberson, ch. du Carre"
302,8579077,"L'Auberson, école"
302,8593784,"L'Auberson, Les Sapins"
302,8593785,"L'Auberson, ch. des Grangettes"
303,8504298,Ste-Croix
304,8571788,"Ste-Croix, gare"
305,8504290,"Ste-Croix, Les Replans"
306,8570260,"La Mothe, haut-du-village"
307,8501981,"Grandson, Corcelettes"
308,8570400,"Payerne, Les Sorbiers"
309,8570399,"Payerne, croisée de Cugy"
309,8570406,"Payerne, fabr. Fivaz"
309,8570400,"Payerne, Les Sorbiers"
310,8570406,"Payerne, fabr. Fivaz"
310,8582048,"Payerne, gymnase"
310,8504780,"Payerne, gare"
310,8504134,Payerne
311,8504134,Payerne
311,8504780,"Payerne, gare"
311,8582048,"Payerne, gymnase"
311,8504999,"Payerne, hôpital"
312,8504999,"Payerne, hôpital"
313,8581635,"Cousset, gare"
313,8504136,Cousset
313,8583200,"Cousset, centre sportif"
314,8583200,"Cousset, centre sportif"
314,8504136,Cousset
315,8581636,"Montagny-la-Ville, auberge"
316,8579077,"L'Auberson, école"
317,8571788,"Ste-Croix, gare"
318,8507973,"Vuiteboeuf, collège"
319,8570260,"La Mothe, haut-du-village"
320,8570257,"Giez, La Croix"
321,8570257,"Giez, La Croix"
321,8507681,"Giez, place du Collège"
322,8507681,"Giez, place du Collège"
322,8570256,"Giez, La Pommelaz"
323,8570256,"Giez, La Pommelaz"
324,8570253,"Grandson, place du Château"
325,8579855,"Grandson, croisée de Fiez"
325,8575769,"Grandson, Borné Nau"
326,8579855,"Grandson, croisée de Fiez"
326,8507957,"Grandson, Le Repuis"
327,8577622,"Cugy FR, gare"
328,8570400,"Payerne, Les Sorbiers"
329,8570400,"Payerne, Les Sorbiers"
330,8582048,"Payerne, gymnase"
330,8583429,"Payerne, Moulin à Pigeon"
331,8583429,"Payerne, Moulin à Pigeon"
331,8582048,"Payerne, gymnase"
332,8504999,"Payerne, hôpital"
333,8581635,"Cousset, gare"
334,8581635,"Cousset, gare"
335,8504136,Cousset
336,8581804,"Montagny, Les Arbognes"
337,8581804,"Montagny, Les Arbognes"
337,8581636,"Montagny-la-Ville, auberge"
338,8579075,"L'Auberson, musée"
339,8507973,"Vuiteboeuf, collège"
340,8507973,"Vuiteboeuf, collège"
341,8583764,"Vuiteboeuf, gare"
342,8507697,"Orges, village"
343,8579729,"Orges, L'Epi"
343,8570258,"Orges, croisée"
343,8507697,"Orges, village"
344,8507681,"Giez, place du Collège"
345,8507681,"Giez, place du Collège"
345,8570256,"Giez, La Pommelaz"
346,8570255,"Grandson, Le Revelin"
347,8504557,Grandson LNM
347,8570255,"Grandson, Le Revelin"
347,8504201,Grandson
347,8570254,"Grandson, Crêt-aux-Moines"
347,8570252,"Grandson, gare"
348,8570253,"Grandson, place du Château"
349,8507651,"Arrissoules, village"
350,8591808,"Cheyres, école"
351,8583429,"Payerne, Moulin à Pigeon"
352,8583429,"Payerne, Moulin à Pigeon"
353,8581635,"Cousset, gare"
354,8583764,"Vuiteboeuf, gare"
354,8504294,Vuiteboeuf
355,8582157,"Peney, village"
356,8507965,"Tuileries-de-Grandson, Kiosque"
357,8570255,"Grandson, Le Revelin"
358,8579739,"Yvonand, Les Vergers"
359,8579739,"Yvonand, Les Vergers"
360,8570401,"Fétigny, Les Sapelettes"
361,8583429,"Payerne, Moulin à Pigeon"
362,8583429,"Payerne, Moulin à Pigeon"
363,8581631,"Montagny-les-Monts, croisée"
364,8579077,"L'Auberson, école"
365,8582157,"Peney, village"
366,8583824,"Valeyres-s.-Montagny, village"
366,8583825,"Valeyres-s.-M., centre sportif"
366,8504292,Valeyres-sous-Montagny
367,8504292,Valeyres-sous-Montagny
367,8583825,"Valeyres-s.-M., centre sportif"
368,8507965,"Tuileries-de-Grandson, Kiosque"
369,8507965,"Tuileries-de-Grandson, Kiosque"
370,8579739,"Yvonand, Les Vergers"
371,8579739,"Yvonand, Les Vergers"
372,8583791,"Yvonand, gare"
372,8504130,Yvonand
372,8579739,"Yvonand, Les Vergers"
373,8583791,"Yvonand, gare"
374,8507651,"Arrissoules, village"
375,8570403,"Fétigny, Grange-des-Bois"
376,8504151,"Fétigny, village"
377,8504154,"Vers-chez-Perrin, bif."
378,8504154,"Vers-chez-Perrin, bif."
379,8579109,"Baulmes, poste"
380,8504292,Valeyres-sous-Montagny
380,8583825,"Valeyres-s.-M., centre sportif"
380,8594014,"Montagny-près-Yverdon, village"
381,8594012,"Montagny-p.-Yv., La Brinaz"
381,8594014,"Montagny-près-Yverdon, village"
381,8504292,Valeyres-sous-Montagny
382,8504291,La Brinaz
382,8594012,"Montagny-p.-Yv., La Brinaz"
383,8507965,"Tuileries-de-Grandson, Kiosque"
384,8582675,"Yvonand, En Brit"
385,8582675,"Yvonand, En Brit"
385,8570385,"Yvonand, dessus-du-village"
386,8570386,"Yvonand, Sur Priales"
386,8570385,"Yvonand, dessus-du-village"
387,8570386,"Yvonand, Sur Priales"
388,8507651,"Arrissoules, village"
389,8504724,"Murist, village"
390,8570403,"Fétigny, Grange-des-Bois"
391,8570402,"Fétigny, Vers la Croix"
391,8570403,"Fétigny, Grange-des-Bois"
392,8570402,"Fétigny, Vers la Croix"
392,8504151,"Fétigny, village"
393,8504154,"Vers-chez-Perrin, bif."
394,8581632,"Mannens, poste"
395,8581632,"Mannens, poste"
396,8581632,"Mannens, poste"
397,8579109,"Baulmes, poste"
398,8504295,Baulmes
398,8579110,"Baulmes, gare"
398,8579109,"Baulmes, poste"
399,8504295,Baulmes
400,8570334,"Essert-sous-Champvent, village"
401,8594014,"Montagny-près-Yverdon, village"
401,8594011,"Montagny-p.-Yv., Clos Lucens"
402,8594011,"Montagny-p.-Yv., Clos Lucens"
402,8594014,"Montagny-près-Yverdon, village"
402,8594012,"Montagny-p.-Yv., La Brinaz"
403,8594012,"Montagny-p.-Yv., La Brinaz"
403,8594010,"Montagny-p.-Yv., Chamard poste"
403,8594013,"Montagny-près-Yverdon, Chamard"
404,8530263,Yverdon William Barbey
404,8570250,"Yverdon-les-Bains, Le Bey"
404,8594032,"Yverdon, William Barbey"
405,8530263,Yverdon William Barbey
405,8594022,"Yverdon-les-Bains, Prés du Lac"
405,8594023,"Yverdon, Léon-Jaquier sud"
405,8594038,"Yverdon-les-Bains, Clair Logis"
406,8507651,"Arrissoules, village"
407,8504724,"Murist, village"
408,8504724,"Murist, village"
409,8504724,"Murist, village"
410,8504718,Aumont
411,8570402,"Fétigny, Vers la Croix"
412,8504158,"Vers-chez-Perrin, Etrabloz"
413,8581632,"Mannens, poste"
414,8504295,Baulmes
415,8595204,"Champvent, Le Battoir"
416,8579740,"Champvent, Croix fédérale"
416,8595204,"Champvent, Le Battoir"
417,8579740,"Champvent, Croix fédérale"
417,8570336,"Champvent, village"
418,8570335,Villars-sous-Champvent
419,8579303,"Chamblon, village-hôpital"
420,8594061,"Yverdon-les-Bains, Blancherie"
420,8594047,"Yverdon-les-Bains, St Georges"
421,8594016,"Yverdon, Collège de Fontenay"
421,8594037,"Yverdon-les-Bains, Cheminet"
421,8570249,"Yverdon, rue des Uttins"
421,8594047,"Yverdon-les-Bains, St Georges"
421,8594032,"Yverdon, William Barbey"
421,8530263,Yverdon William Barbey
422,8594023,"Yverdon, Léon-Jaquier sud"
422,8530263,Yverdon William Barbey
422,8595067,"Yverdon, conservatoire"
422,8570249,"Yverdon, rue des Uttins"
422,8594159,"Yverdon, rue de Neuchâtel"
422,8594053,"Yverdon-les-Bains, Mujon"
423,8504558,Yverdon-les-Bains LNM
424,8504558,Yverdon-les-Bains LNM
425,8504458,"Yverdon-les-Bains, gymnase"
426,8570385,"Yvonand, dessus-du-village"
427,8504724,"Murist, village"
428,8504724,"Murist, village"
429,8504901,"Nuvilly, village"
430,8504901,"Nuvilly, village"
431,8504150,"Ménières, village"
432,8570402,"Fétigny, Vers la Croix"
433,8504296,Six-Fontaines
434,8579740,"Champvent, Croix fédérale"
434,8595204,"Champvent, Le Battoir"
435,8579303,"Chamblon, village-hôpital"
436,8579298,"Treycovagnes, Châtelard"
437,8594061,"Yverdon-les-Bains, Blancherie"
437,8594029,"Yverdon, rue de Bullet"
438,8579296,"Yverdon-les-Bains, Romand"
438,8595068,"Yverdon-les-Bains, rue d'Orbe"
438,8594016,"Yverdon, Collège de Fontenay"
438,8594029,"Yverdon, rue de Bullet"
438,8570240,"Yverdon, rue de Montagny"
439,8570239,"Yverdon-les-Bains, 24 Janvier"
439,8594159,"Yverdon, rue de Neuchâtel"
439,8595068,"Yverdon-les-Bains, rue d'Orbe"
439,8594030,"Yverdon, rue de Chamblon"
439,8579294,"Yverdon-les-Bains, Bel-Air"
439,8579296,"Yverdon-les-Bains, Romand"
439,8575840,"Yverdon, Quai de la Thièle"
440,8594031,"Yverdon, Théâtre Benno Besson"
440,8504774,"Yverdon-les-Bains, gare"
440,8504200,Yverdon-les-Bains
440,8594062,"Yverdon-les-Bains,Maison Rouge"
441,8594056,"Yverdon, Pont du Buron"
442,8504458,"Yverdon-les-Bains, gymnase"
443,8504458,"Yverdon-les-Bains, gymnase"
444,8507969,"Villars-Epeney, Fontaine"
445,8507687,"La Mauguettaz, croisée"
446,8570387,"Rovray, village"
447,8504901,"Nuvilly, village"
448,8504901,"Nuvilly, village"
449,8504901,"Nuvilly, village"
450,8504150,"Ménières, village"
451,8504150,"Ménières, village"
452,8570482,"Trey, Planche-à-Failly"
453,8579301,"Chamblon, casernes"
454,8579303,"Chamblon, village-hôpital"
454,8595656,"Chamblon, La Meunière"
454,8579302,"Chamblon, réservoir"
454,8579301,"Chamblon, casernes"
455,8579303,"Chamblon, village-hôpital"
455,8507964,"Treycovagnes, village"
455,8579299,"Treycovagnes, Champ-Muraz"
455,8595656,"Chamblon, La Meunière"
456,8579298,"Treycovagnes, Châtelard"
457,8579298,"Treycovagnes, Châtelard"
458,8594019,"Yverdon, Curtil Maillet"
458,8570240,"Yverdon, rue de Montagny"
458,8579296,"Yverdon-les-Bains, Romand"
458,8579295,"Yverdon, Général-Guisan"
458,8595068,"Yverdon-les-Bains, rue d'Orbe"
459,8594024,"Yverdon, Les Chaînettes"
459,8579295,"Yverdon, Général-Guisan"
459,8594017,"Yverdon, Centre Professionnel"
459,8595069,"Yverdon-les-Bains, rue du Midi"
459,8595068,"Yverdon-les-Bains, rue d'Orbe"
459,8579296,"Yverdon-les-Bains, Romand"
460,8594054,"Yverdon-les-Bains, Philosophes"
460,8594043,"Yverdon-les-Bains, La Plaine"
460,8594021,"Yverdon, J.-J. Rousseau"
460,8594062,"Yverdon-les-Bains,Maison Rouge"
460,8594031,"Yverdon, Théâtre Benno Besson"
461,8594056,"Yverdon, Pont du Buron"
461,8570288,"Yverdon, 4 Marronniers"
461,8582051,"Yverdon-les-Bains, 14 Avril"
461,8594021,"Yverdon, J.-J. Rousseau"
462,8570318,"Yverdon-les-Bains, HEIG-VD"
462,8582051,"Yverdon-les-Bains, 14 Avril"
462,8579289,"Yverdon-les-Bains, Clendy"
463,8594051,"Yverdon-les-Bains, L'Orient"
463,8594020,"Yverdon, Grands Champs"
463,8594035,"Yverdon-les-Bains, Bellevue"
463,8570318,"Yverdon-les-Bains, HEIG-VD"
464,8594035,"Yverdon-les-Bains, Bellevue"
464,8594020,"Yverdon, Grands Champs"
464,8594051,"Yverdon-les-Bains, L'Orient"
465,8507687,"La Mauguettaz, croisée"
466,8504987,"Chavannes-le-Chêne, Hôtel"
467,8504987,"Chavannes-le-Chêne, Hôtel"
468,8504159,"Sassel, village"
469,8504159,"Sassel, village"
470,8504150,"Ménières, village"
471,8504150,"Ménières, village"
472,8504150,"Ménières, village"
473,8570482,"Trey, Planche-à-Failly"
474,8504795,"Middes, bif."
475,8504296,Six-Fontaines
476,8570243,"Rances, Praz-Riond"
477,8507964,"Treycovagnes, village"
478,8507964,"Treycovagnes, village"
479,8594026,"Yverdon, Moulins Dessus"
479,8594049,"Yverdon-les-Bains, Les Moulins"
480,8594026,"Yverdon, Moulins Dessus"
480,8594017,"Yverdon, Centre Professionnel"
480,8594039,"Yverdon-les-Bains, Faïencerie"
481,8594054,"Yverdon-les-Bains, Philosophes"
481,8594039,"Yverdon-les-Bains, Faïencerie"
481,8594046,"Yverdon-les-Bains, cimetière"
481,8595070,"Yverdon-les-Bains, Valentin"
482,8594018,"Yverdon, Centre Thermal"
482,8594040,"Yverdon-les-Bains, hôpital"
482,8570289,"Yverdon-les-Bains, Les Bains"
482,8570288,"Yverdon, 4 Marronniers"
482,8594055,"Yverdon-les-Bains, Plaisance"
483,8594041,"Yverdon-les-Bains, La Colline"
483,8594052,"Yverdon-les-Bains, Mont-Riant"
484,8594035,"Yverdon-les-Bains, Bellevue"
484,8594041,"Yverdon-les-Bains, La Colline"
485,8594035,"Yverdon-les-Bains, Bellevue"
486,8570321,"Cuarny, église"
487,8504987,"Chavannes-le-Chêne, Hôtel"
488,8582049,"Treytorrens (Payerne), église"
488,8577614,"Treytorrens (Payerne), village"
488,8577613,"Treytorrens (Payerne), Nord"
489,8504159,"Sassel, village"
490,8570481,"Trey, village"
491,8570481,"Trey, village"
492,8504795,"Middes, bif."
493,8504795,"Middes, bif."
494,8570242,"Mathod, Moulin de Mathod"
495,8507686,"Mathod, Bras d'Or"
496,8507686,"Mathod, Bras d'Or"
497,8582423,"Suscévaz, Au Coin"
498,8570241,"Suscévaz, Les Vignes"
499,8594039,"Yverdon-les-Bains, Faïencerie"
500,8594044,"Yverdon-les-Bains, La Sallaz"
500,8594027,"Yverdon, Parc Scientifique"
500,8595065,"Yverdon, avenue des Sciences"
500,8594039,"Yverdon-les-Bains, Faïencerie"
500,8594028,"Yverdon, Pierre de Savoie"
501,8594055,"Yverdon-les-Bains, Plaisance"
501,8594027,"Yverdon, Parc Scientifique"
501,8570290,"Yverdon, Champs-Lovats"
501,8507659,"Yverdon-les-Bains, Condémines"
501,8594044,"Yverdon-les-Bains, La Sallaz"
502,8594050,"Yverdon-les-Bains, Les Pins"
502,8594025,"Yverdon, Maison Blanche"
502,8570290,"Yverdon, Champs-Lovats"
502,8507659,"Yverdon-les-Bains, Condémines"
503,8570321,"Cuarny, église"
504,8504988,"Chêne-Pâquier, anc. poste"
504,8570392,"Chêne-Pâquier, La Cure"
505,8582049,"Treytorrens (Payerne), église"
505,8577614,"Treytorrens (Payerne), village"
506,8570404,"Sassel, Chapalettaz"
507,8570481,"Trey, village"
508,8570481,"Trey, village"
509,8504795,"Middes, bif."
510,8504795,"Middes, bif."
511,8507956,"Rances, bif."
512,8570243,"Rances, Praz-Riond"
513,8570242,"Mathod, Moulin de Mathod"
514,8507686,"Mathod, Bras d'Or"
515,8507962,"Suscévaz, village"
516,8507964,"Treycovagnes, village"
517,8594039,"Yverdon-les-Bains, Faïencerie"
518,8595065,"Yverdon, avenue des Sciences"
518,8595161,"Yverdon, Petits-Champs"
518,8579760,"Yverdon, Zone industrielle sud"
518,8594027,"Yverdon, Parc Scientifique"
519,8595161,"Yverdon, Petits-Champs"
519,8594027,"Yverdon, Parc Scientifique"
519,8579760,"Yverdon, Zone industrielle sud"
519,8570290,"Yverdon, Champs-Lovats"
520,8570290,"Yverdon, Champs-Lovats"
520,8570302,"Pomy, Centre Orif"
521,8570302,"Pomy, Centre Orif"
522,8507689,"Molondin, village"
523,8582049,"Treytorrens (Payerne), église"
524,8504152,"Combremont-le-Grand, village"
525,8570405,"Combremont-le-Grand, Le Garage"
525,8577620,"Combremont-le-Grand, église"
526,8580464,"Combremont-le-Grand, Crévy"
527,8570384,"Cheiry, Coumin"
528,8570374,"Granges-près-Marnand, poste"
529,8570374,"Granges-près-Marnand, poste"
530,8570480,"Trey, Les Folosses"
531,8504795,"Middes, bif."
532,8579905,"L'Abergement, village"
533,8507956,"Rances, bif."
534,8507652,"Gressy, Le Bas-des-Monts"
535,8595066,"Yverdon, chemin de la Chèvre"
535,8579760,"Yverdon, Zone industrielle sud"
536,8507953,"Pomy, village"
537,8507953,"Pomy, village"
537,8570308,"Pomy, collège"
538,8570309,"Cronay, église"
539,8570309,"Cronay, église"
540,8507689,"Molondin, village"
541,8570389,"Champtauroz, église"
542,8570389,"Champtauroz, église"
543,8570389,"Champtauroz, église"
544,8504152,"Combremont-le-Grand, village"
545,8577620,"Combremont-le-Grand, église"
545,8504152,"Combremont-le-Grand, village"
546,8570374,"Granges-près-Marnand, poste"
547,8570374,"Granges-près-Marnand, poste"
547,8504122,Granges-Marnand
547,8570373,"Granges-près-Marnand, gare"
548,8570373,"Granges-près-Marnand, gare"
548,8504122,Granges-Marnand
549,8570478,"Châtonnaye, Champ-des-Forches"
549,8570479,"Châtonnaye, Les Beauregard"
550,8579905,"L'Abergement, village"
551,8570244,"Valeyres-sous-Rances, rest."
552,8570244,"Valeyres-sous-Rances, rest."
553,8570244,"Valeyres-sous-Rances, rest."
554,8507652,"Gressy, Le Bas-des-Monts"
555,8570309,"Cronay, église"
555,8583211,"Cronay, Le Crêt"
555,8507670,"Cronay, village"
556,8570309,"Cronay, église"
557,8507689,"Molondin, village"
558,8570374,"Granges-près-Marnand, poste"
559,8504122,Granges-Marnand
559,8570373,"Granges-près-Marnand, gare"
560,8570480,"Trey, Les Folosses"
561,8570478,"Châtonnaye, Champ-des-Forches"
562,8570478,"Châtonnaye, Champ-des-Forches"
562,8504980,"Châtonnaye, poste"
563,8579905,"L'Abergement, village"
564,8579102,Sergey
565,8570244,"Valeyres-sous-Rances, rest."
566,8507685,"Gressy, place du village"
567,8580576,"Gressy, Moulin"
568,8507967,"Valeyres-sous-Ursins, village"
569,8507690,"Cronay, Moulin du Pont"
570,8570311,"Donneloye, En Jon"
571,8507688,"Mézery-près-Donneloye, village"
572,8577619,"Combremont-le-Petit, village"
573,8570383,"Cheiry, village"
574,8570383,"Cheiry, village"
575,8570376,"Villeneuve FR, Champs Abessaz"
576,8504754,"Villarzel, village"
577,8504980,"Châtonnaye, poste"
578,8504980,"Châtonnaye, poste"
579,8579099,"Lignerolle, église"
580,8570244,"Valeyres-sous-Rances, rest."
581,8501110,Ependes
582,8507653,"Belmont-sur-Yverdon, Battoir"
583,8507967,"Valeyres-sous-Ursins, village"
584,8507690,"Cronay, Moulin du Pont"
585,8570310,"Donneloye, croisée"
585,8507674,"Donneloye, poste"
586,8507688,"Mézery-près-Donneloye, village"
587,8507672,"Démoret, collège"
588,8504153,"Combremont-le-Petit, poste"
589,8504153,"Combremont-le-Petit, poste"
590,8570383,"Cheiry, village"
591,8570375,"Villeneuve FR, village"
592,8504754,"Villarzel, village"
593,8504981,"Sédeilles, village"
594,8504981,"Sédeilles, village"
595,8504980,"Châtonnaye, poste"
596,8504980,"Châtonnaye, poste"
597,8579908,"Ballaigues, collège"
598,8579099,"Lignerolle, église"
599,8579099,"Lignerolle, église"
600,8501110,Ependes
601,8501110,Ependes
602,8501110,Ependes
603,8507675,"Epautheyres, croisée"
604,8507682,"Gossens, village"
605,8507682,"Gossens, village"
606,8570310,"Donneloye, croisée"
606,8507674,"Donneloye, poste"
607,8570316,"Prahins, Les Ivuez"
608,8570316,"Prahins, Les Ivuez"
609,8570378,"Surpierre, école"
610,8570375,"Villeneuve FR, village"
611,8570476,"Villarzel, Le Cachet"
612,8579908,"Ballaigues, collège"
613,8579096,"Ballaigues, Jura-Rosaly"
614,8579100,"Les Clées-La Russille, croisée"
615,8579115,"Montcherand, haut du village"
616,8579115,"Montcherand, haut du village"
616,8579103,"Montcherand, poste"
617,8595062,"Orbe, route de Valeyres"
617,8595249,"Orbe, Petit-Bois"
617,8570246,"Orbe, Les Mosaïques"
618,8570247,"Orbe, Montchoisi"
619,8595408,"Orbe, cimetière"
620,8507675,"Epautheyres, croisée"
621,8507966,"Ursins, Le Battoir"
622,8579735,"Gossens, La Cernia"
623,8504727,"Vuissens, poste"
624,8504727,"Vuissens, poste"
624,8577616,"Vuissens, école"
625,8504141,Henniez
626,8504141,Henniez
627,8583423,"Villarzel, Les Râpes"
627,8570477,"Rossens VD, La Rapette"
627,8504998,"Rossens VD, village"
628,8570477,"Rossens VD, La Rapette"
629,8579909,"Vallorbe, Le Creux"
629,8504569,Le Creux VD
630,8579907,"Ballaigues, cure"
630,8579094,"Ballaigues, Vers-chez-Barrat"
631,8579907,"Ballaigues, cure"
631,8579908,"Ballaigues, collège"
631,8579095,"Ballaigues, poste"
631,8579906,"Ballaigues, Maillefer"
632,8579906,"Ballaigues, Maillefer"
633,8579096,"Ballaigues, Jura-Rosaly"
634,8579099,"Lignerolle, église"
635,8579115,"Montcherand, haut du village"
636,8577281,"Montcherand, Usine électrique"
636,8579103,"Montcherand, poste"
636,8579115,"Montcherand, haut du village"
637,8577202,"Orbe, Chantemerle"
637,8595061,"Orbe, Plamont"
637,8595249,"Orbe, Petit-Bois"
637,8581953,"Orbe, Suchet"
638,8595057,"Orbe, La Croix"
638,8577202,"Orbe, Chantemerle"
638,8570248,"Orbe, hôpital"
638,8595249,"Orbe, Petit-Bois"
638,8570247,"Orbe, Montchoisi"
639,8595060,"Orbe, Penchèvre"
640,8501111,Essert-Pittet
641,8507966,"Ursins, Le Battoir"
642,8507954,"Prahins, village"
643,8570379,"Praratoud, Laiterie"
644,8504998,"Rossens VD, village"
645,8579092,"Vallorbe, Les Pontets"
646,8579094,"Ballaigues, Vers-chez-Barrat"
647,8579094,"Ballaigues, Vers-chez-Barrat"
648,8577281,"Montcherand, Usine électrique"
649,8581953,"Orbe, Suchet"
650,8595054,"Orbe, Couronne"
650,8501191,Orbe
650,8570248,"Orbe, hôpital"
650,8501267,"Orbe, poste"
650,8581116,"Orbe, gare"
650,8595060,"Orbe, Penchèvre"
650,8595055,"Orbe, Dame"
650,8595063,"Orbe, rue Neuve"
651,8595060,"Orbe, Penchèvre"
651,8595408,"Orbe, cimetière"
651,8595063,"Orbe, rue Neuve"
652,8501111,Essert-Pittet
653,8501111,Essert-Pittet
654,8579733,"Suchy, Grande Salle"
655,8507654,"Bioley-Magnoux, collège"
656,8507660,"Chanéaz, village"
657,8583483,"Prévondavaux, village"
658,8583314,"Forel-sur-Lucens, Dessous"
659,8583314,"Forel-sur-Lucens, Dessous"
659,8583752,"Forel-sur-Lucens, Le Crêt"
660,8504141,Henniez
661,8504141,Henniez
662,8570474,"Cerniaz VD, La Croisée"
663,8579091,"Vallorbe, Les Jurats"
664,8579091,"Vallorbe, Les Jurats"
665,8507650,"Agiez, Vers-le-Pont"
666,8507650,"Agiez, Vers-le-Pont"
667,8579108,"Orbe, croisée Agiez"
667,8595409,"Orbe, Les Moulins"
667,8530262,St-Eloi
667,8570237,"Orbe, collège"
667,8501191,Orbe
667,8595063,"Orbe, rue Neuve"
667,8581116,"Orbe, gare"
667,8501267,"Orbe, poste"
668,8595063,"Orbe, rue Neuve"
668,8501194,Les Granges (Orbe)
668,8595410,"Orbe, route de Chavornay"
668,8595482,"Les Granges (Orbe), gare"
668,8595409,"Orbe, Les Moulins"
669,8595482,"Les Granges (Orbe), gare"
669,8501194,Les Granges (Orbe)
670,8579734,"Suchy, village"
670,8579733,"Suchy, Grande Salle"
671,8579733,"Suchy, Grande Salle"
672,8583030,"Essertines-s.-Yv., Gde Salle"
673,8507698,"Orzens, village"
674,8507654,"Bioley-Magnoux, collège"
675,8570370,"Denezy, collège"
676,8583483,"Prévondavaux, village"
677,8583314,"Forel-sur-Lucens, Dessous"
678,8570380,"Cremin, village"
679,8570380,"Cremin, village"
680,8504141,Henniez
681,8570474,"Cerniaz VD, La Croisée"
682,8570474,"Cerniaz VD, La Croisée"
683,8579911,"Vallorbe, collège"
683,8579910,"Vallorbe, Eterpaz"
684,8579090,"Vallorbe, Trésit"
685,8579090,"Vallorbe, Trésit"
686,8501104,Le Day
687,8570235,"Agiez, L'Epine"
688,8507650,"Agiez, Vers-le-Pont"
688,8570235,"Agiez, L'Epine"
689,8595056,"Orbe, Fleurs-de-Lys"
689,8570236,"Orbe, Champ de la Pierre"
689,8579108,"Orbe, croisée Agiez"
690,8530262,St-Eloi
690,8595056,"Orbe, Fleurs-de-Lys"
690,8579108,"Orbe, croisée Agiez"
691,8595482,"Les Granges (Orbe), gare"
692,8595482,"Les Granges (Orbe), gare"
693,8583030,"Essertines-s.-Yv., Gde Salle"
694,8583030,"Essertines-s.-Yv., Gde Salle"
695,8583030,"Essertines-s.-Yv., Gde Salle"
696,8583030,"Essertines-s.-Yv., Gde Salle"
697,8507698,"Orzens, village"
698,8507665,"Correvon, village"
699,8507665,"Correvon, village"
700,8570370,"Denezy, collège"
701,8570370,"Denezy, collège"
702,8583314,"Forel-sur-Lucens, Dessous"
703,8570380,"Cremin, village"
704,8570473,"Dompierre VD, village"
705,8504155,"Villars-Bramard, village"
706,8579293,"Vallorbe, gare"
706,8501103,Vallorbe
707,8501103,Vallorbe
707,8579912,"Vallorbe, place de la Liberté"
707,8579293,"Vallorbe, gare"
708,8579911,"Vallorbe, collège"
708,8579088,"Vallorbe, poste"
708,8579910,"Vallorbe, Eterpaz"
709,8579910,"Vallorbe, Eterpaz"
710,8501104,Le Day
711,8501105,Bretonnières
712,8570200,"Chavornay, gare"
713,8501112,Chavornay
714,8583030,"Essertines-s.-Yv., Gde Salle"
715,8583030,"Essertines-s.-Yv., Gde Salle"
716,8583030,"Essertines-s.-Yv., Gde Salle"
717,8507696,"Oppens, croisée"
718,8507696,"Oppens, croisée"
719,8581610,"Oppens, La Tuilière"
720,8507665,"Correvon, village"
721,8507665,"Correvon, village"
722,8583110,"Lucens, gare"
723,8570473,"Dompierre VD, village"
724,8504155,"Villars-Bramard, village"
725,8504155,"Villars-Bramard, village"
726,8570484,"Romont FR, Les Rochettes-PAA"
727,8579293,"Vallorbe, gare"
728,8579293,"Vallorbe, gare"
729,8579088,"Vallorbe, poste"
730,8579088,"Vallorbe, poste"
731,8501104,Le Day
732,8501256,"Premier, collège"
733,8570200,"Chavornay, gare"
733,8501112,Chavornay
734,8570200,"Chavornay, gare"
734,8501112,Chavornay
735,8501112,Chavornay
736,8570397,"Ogens, village"
737,8570397,"Ogens, village"
738,8570364,"Villars-le-Comte, poste"
738,8570363,"Villars-le-Comte, Le Chalet"
739,8583110,"Lucens, gare"
739,8504121,Lucens
739,8591864,"Lucens, centre"
740,8583110,"Lucens, gare"
740,8504121,Lucens
741,8570473,"Dompierre VD, village"
742,8570473,"Dompierre VD, village"
743,8570484,"Romont FR, Les Rochettes-PAA"
744,8579293,"Vallorbe, gare"
745,8579293,"Vallorbe, gare"
746,8579293,"Vallorbe, gare"
747,8501256,"Premier, collège"
748,8501256,"Premier, collège"
748,8570228,"Premier, village"
748,8570227,"Premier, croisée de Forel"
749,8570234,"Bofflens, laiterie"
749,8583451,"Bofflens, Sur Chaumy"
750,8570200,"Chavornay, gare"
751,8570200,"Chavornay, gare"
752,8570198,"Corcelles-sur-Chav., village"
752,8570199,"Corcelles-sur-Chav., rte Chav."
753,8570197,"Corcelles-sur-Chav., Longeraie"
753,8570198,"Corcelles-sur-Chav., village"
754,8570196,"Corcelles-sur-Chav., Tuilerie"
755,8570397,"Ogens, village"
756,8507963,"Thierrens, poste"
756,8570317,"Thierrens, En Tombaz"
756,8581943,"Thierrens, gare routière"
757,8581943,"Thierrens, gare routière"
757,8570372,"Thierrens, Fontana-Bion"
758,8570364,"Villars-le-Comte, poste"
759,8591864,"Lucens, centre"
760,8591864,"Lucens, centre"
761,8583110,"Lucens, gare"
761,8591864,"Lucens, centre"
761,8504121,Lucens
762,8570473,"Dompierre VD, village"
763,8570233,"Croy, En Fochau"
763,8501106,Croy-Romainmôtier
763,8570148,"Croy-Romainmôtier, gare"
764,8570200,"Chavornay, gare"
765,8570199,"Corcelles-sur-Chav., rte Chav."
766,8570197,"Corcelles-sur-Chav., Longeraie"
767,8504759,"Pailly, village"
768,8570305,"Pailly, Le Rembloz"
768,8504759,"Pailly, village"
769,8570352,"Thierrens, La Rapaz"
769,8570353,"Thierrens, Prouty"
770,8507963,"Thierrens, poste"
770,8570353,"Thierrens, Prouty"
771,8570355,"Thierrens, La Croix"
772,8570361,"Oulens-sur-Lucens, La Crausaz"
772,8570362,"Oulens-sur-Lucens, village"
773,8591864,"Lucens, centre"
774,8591864,"Lucens, centre"
775,8591865,"Curtilles, village"
776,8591865,"Curtilles, village"
777,8570471,"Prévonloup, poste"
777,8570470,"Prévonloup, café"
778,8570467,"Billens, hôpital"
779,8580862,"Vaulion, centre"
780,8570229,"Vaulion, Nidau"
781,8570229,"Vaulion, Nidau"
782,8570149,"Romainmôtier, église"
782,8504657,"Romainmôtier, poste"
782,8570225,"Romainmôtier, Les Portes"
782,8570226,"Romainmôtier, Le Nid"
783,8570225,"Romainmôtier, Les Portes"
784,8570224,"Croy, anc. Battoir"
785,8570148,"Croy-Romainmôtier, gare"
785,8501106,Croy-Romainmôtier
785,8570233,"Croy, En Fochau"
786,8579106,"Arnex, gare"
786,8501107,Arnex
786,8576379,"Arnex, poste"
787,8501113,Bavois
788,8501980,"Vuarrengel, Laiterie"
789,8504759,"Pailly, village"
790,8504759,"Pailly, village"
791,8507959,"Rueyres VD, croisée"
792,8580578,"Bercher, Vers l'Eglise"
793,8581437,"Neyruz-sur-Moudon, collège"
794,8570361,"Oulens-sur-Lucens, La Crausaz"
795,8591865,"Curtilles, village"
796,8591865,"Curtilles, village"
797,8504694,"Lovatens, village"
798,8570470,"Prévonloup, café"
799,8570467,"Billens, hôpital"
800,8570467,"Billens, hôpital"
801,8570232,"Vaulion, poste"
802,8580862,"Vaulion, centre"
802,8570231,"Vaulion, Sur la Creusaz"
803,8570150,"Juriens, village"
804,8570149,"Romainmôtier, église"
805,8570224,"Croy, anc. Battoir"
806,8576379,"Arnex, poste"
807,8570195,"Penthéréaz, Champ-de-Vaud"
808,8501980,"Vuarrengel, Laiterie"
808,8570293,"Vuarrengel, En Chollet"
809,8570293,"Vuarrengel, En Chollet"
809,8501980,"Vuarrengel, Laiterie"
810,8507959,"Rueyres VD, croisée"
811,8507959,"Rueyres VD, croisée"
811,8570306,"Rueyres VD, Le Dejors"
812,8501177,Bercher
812,8570307,"Bercher, gare"
812,8582403,"Bercher, 7 Fontaines"
813,8580462,"Bercher, village"
813,8582403,"Bercher, 7 Fontaines"
813,8570395,"Bercher, Vieux-Collège"
814,8570395,"Bercher, Vieux-Collège"
814,8580578,"Bercher, Vers l'Eglise"
815,8581512,"St-Cierges, Transformateur"
815,8507960,"St-Cierges, Grande Salle"
816,8581514,"Thierrens, Le Planchy"
817,8591865,"Curtilles, village"
818,8591865,"Curtilles, village"
819,8504694,"Lovatens, village"
820,8504093,"Billens, village"
820,8570467,"Billens, hôpital"
821,8588867,"Billens, bif."
821,8570467,"Billens, hôpital"
822,8570232,"Vaulion, poste"
823,8570232,"Vaulion, poste"
824,8570232,"Vaulion, poste"
825,8576379,"Arnex, poste"
826,8501113,Bavois
827,8501113,Bavois
828,8570194,"Penthéréaz, Le Battoir"
829,8507971,"Vuarrens, poste"
829,8570293,"Vuarrengel, En Chollet"
830,8507971,"Vuarrens, poste"
830,8570293,"Vuarrengel, En Chollet"
831,8582403,"Bercher, 7 Fontaines"
832,8582403,"Bercher, 7 Fontaines"
833,8570351,"St-Cierges, La Tondiaz"
833,8507960,"St-Cierges, Grande Salle"
834,8570351,"St-Cierges, La Tondiaz"
835,8570354,"Neyruz-sur-Moudon,Les Rutannes"
836,8570354,"Neyruz-sur-Moudon,Les Rutannes"
837,8570358,"Bussy-sur-Moudon, village"
837,8570360,"Bussy-sur-Moudon, La Cauderie"
838,8570359,"Bussy-sur-Moudon, collège"
839,8504695,"Sarzens, village"
840,8504694,"Lovatens, village"
841,8504699,"Billens, Les Mottes"
842,8504093,"Billens, village"
843,8570232,"Vaulion, poste"
844,8501113,Bavois
845,8570192,"Penthéréaz, village"
846,8570192,"Penthéréaz, village"
847,8507971,"Vuarrens, poste"
848,8507971,"Vuarrens, poste"
849,8570223,"Boulens, croisée"
850,8570358,"Bussy-sur-Moudon, village"
850,8570357,"Bussy-sur-Moudon,Foulaz-Verney"
851,8504698,Chesalles-sur-Moudon
852,8504695,"Sarzens, village"
853,8504699,"Billens, Les Mottes"
854,8504699,"Billens, Les Mottes"
855,8501100,Le Pont
856,8570232,"Vaulion, poste"
857,8501113,Bavois
858,8570192,"Penthéréaz, village"
859,8583302,"Villars-le-Terroir, Le Buron"
860,8570298,"Vuarrens, gar. du Gros-de-Vaud"
861,8501176,Fey
862,8501176,Fey
863,8570222,"Boulens, Moulin de l'Augine"
863,8570223,"Boulens, croisée"
864,8570222,"Boulens, Moulin de l'Augine"
865,8570354,"Neyruz-sur-Moudon,Les Rutannes"
866,8570356,"Moudon, Grange-Verney"
867,8504695,"Sarzens, village"
868,8504695,"Sarzens, village"
869,8504879,"Drognens, caserne"
870,8501152,Le Séchey
871,8501100,Le Pont
872,8570232,"Vaulion, poste"
873,8570162,"Pompaples, poste"
874,8501113,Bavois
875,8570192,"Penthéréaz, village"
876,8501176,Fey
877,8501176,Fey
878,8570350,"Chapelle-sur-Moudon, Mulles"
879,8570350,"Chapelle-sur-Moudon, Mulles"
880,8570341,"Moudon, Le Vallon"
881,8581513,"Moudon, Chalet-Blanc"
882,8570339,"Moudon, La Prairie"
882,8570340,"Moudon, av. de Bussy"
882,8581513,"Moudon, Chalet-Blanc"
883,8570339,"Moudon, La Prairie"
884,8504698,Chesalles-sur-Moudon
885,8577647,"Brenles, La Gaîté"
886,8504696,"Brenles, village"
886,8577647,"Brenles, La Gaîté"
887,8504879,"Drognens, caserne"
888,8501151,Les Charbonnières
889,8501151,Les Charbonnières
890,8570161,"Le Pont, gare"
890,8501100,Le Pont
890,8530621,Le Pont NLJ
891,8579136,"Le Pont, église"
892,8570232,"Vaulion, poste"
893,8570153,"La Praz, Maison de commune"
893,8570152,"La Praz, La Scie"
894,8501894,"St-Loup, hôpital"
895,8501894,"St-Loup, hôpital"
896,8570162,"Pompaples, poste"
897,8570162,"Pompaples, poste"
898,8501114,Eclépens
899,8570188,"Eclagnens, collège"
900,8501176,Fey
901,8501176,Fey
902,8501176,Fey
903,8507661,"Chapelle-sur-Moudon, poste"
904,8507661,"Chapelle-sur-Moudon, poste"
905,8570341,"Moudon, Le Vallon"
906,8570341,"Moudon, Le Vallon"
906,8581513,"Moudon, Chalet-Blanc"
907,8581513,"Moudon, Chalet-Blanc"
907,8504120,Moudon
907,8577655,"Moudon, collège"
907,8570393,"Moudon, gare"
907,8570338,"Moudon, L'Ochette"
907,8570339,"Moudon, La Prairie"
907,8570340,"Moudon, av. de Bussy"
908,8577655,"Moudon, collège"
908,8504120,Moudon
909,8504698,Chesalles-sur-Moudon
910,8504696,"Brenles, village"
911,8504936,"Siviriez, Les Genièvres"
912,8504936,"Siviriez, Les Genièvres"
913,8593532,"Le Pont, Les Fougères"
914,8570158,"Mollendruz, col"
915,8504651,"Ferreyres, village"
916,8570162,"Pompaples, poste"
917,8570162,"Pompaples, poste"
918,8501114,Eclépens
919,8570188,"Eclagnens, collège"
920,8583231,"Sugnens, village"
921,8570221,"Peyres-Possens, café"
922,8507663,"Chapelle-sur-Moudon, La Combe"
923,8507661,"Chapelle-sur-Moudon, poste"
924,8570342,"Moudon, Belflori"
925,8592165,"Moudon, Sorbiers"
926,8577653,"Moudon, Le Verger"
926,8570393,"Moudon, gare"
926,8504120,Moudon
927,8504120,Moudon
928,8577648,"Chavannes-sur-Moudon, Burinaux"
929,8501152,Le Séchey
930,8501152,Le Séchey
931,8501152,Le Séchey
932,8501152,Le Séchey
933,8593532,"Le Pont, Les Fougères"
934,8504651,"Ferreyres, village"
935,8504651,"Ferreyres, village"
936,8570146,"Ferreyres, La Tine"
937,8570145,"La Sarraz, piscine"
938,8570144,"La Sarraz, centre"
938,8570142,"La Sarraz, gare"
938,8501108,La Sarraz
939,8570189,"Goumoens-la-Ville, Eclagnens"
940,8570190,"Goumoens-la-Ville, centre"
940,8570189,"Goumoens-la-Ville, Eclagnens"
941,8570190,"Goumoens-la-Ville, centre"
942,8570300,"Villars-le-Terroir, pl. Eglise"
942,8583301,"Villars-le-Terroir, av. d'Orbe"
943,8570299,"Villars-le-Terroir, B.-Croix"
944,8583231,"Sugnens, village"
945,8570221,"Peyres-Possens, café"
946,8570221,"Peyres-Possens, café"
947,8570348,"Sottens, croisée"
948,8570342,"Moudon, Belflori"
949,8592165,"Moudon, Sorbiers"
949,8577652,"Moudon, Sorbier"
950,8592165,"Moudon, Sorbiers"
951,8504976,"Siviriez, En Jogne"
952,8504899,"Siviriez, village"
953,8504936,"Siviriez, Les Genièvres"
953,8504899,"Siviriez, village"
954,8579137,"L'Abbaye, place du village"
955,8570146,"Ferreyres, La Tine"
956,8570146,"Ferreyres, La Tine"
957,8570145,"La Sarraz, piscine"
958,8570142,"La Sarraz, gare"
959,8504659,"Eclépens, village"
960,8570139,"Eclépens, gare"
961,8501114,Eclépens
961,8570139,"Eclépens, gare"
962,8570189,"Goumoens-la-Ville, Eclagnens"
963,8570190,"Goumoens-la-Ville, centre"
963,8570189,"Goumoens-la-Ville, Eclagnens"
964,8570201,"Goumoens-la-Ville, Tuilerie"
965,8583301,"Villars-le-Terroir, av. d'Orbe"
966,8507970,"Villars-le-Terroir, poste"
966,8583301,"Villars-le-Terroir, av. d'Orbe"
966,8570300,"Villars-le-Terroir, pl. Eglise"
967,8570300,"Villars-le-Terroir, pl. Eglise"
968,8570299,"Villars-le-Terroir, B.-Croix"
969,8583231,"Sugnens, village"
969,8501175,Sugnens
970,8583231,"Sugnens, village"
971,8570220,"Naz, laiterie"
971,8583400,"Peyres-Possens, Les Tuilières"
972,8583400,"Peyres-Possens, Les Tuilières"
973,8570349,"Sottens, Radio"
974,8570348,"Sottens, croisée"
975,8570343,"Rossenges, croisée"
976,8504019,Bressonnaz
977,8577650,"Chavannes-sur-Moudon, village"
978,8504976,"Siviriez, En Jogne"
978,8504899,"Siviriez, village"
979,8504899,"Siviriez, village"
980,8579139,"L'Abbaye, Groenroud"
981,8579139,"L'Abbaye, Groenroud"
982,8579137,"L'Abbaye, place du village"
982,8579138,"L'Abbaye, Les Collondés"
983,8570154,"Mont-la-Ville, poste"
984,8570147,"Moiry VD, collège"
985,8570147,"Moiry VD, collège"
986,8570145,"La Sarraz, piscine"
987,8504659,"Eclépens, village"
987,8570141,"Eclépens, collège"
988,8570141,"Eclépens, collège"
989,8570140,"Eclépens, Cinq-Sous"
990,8570139,"Eclépens, gare"
991,8570188,"Eclagnens, collège"
992,8570201,"Goumoens-la-Ville, Tuilerie"
993,8570201,"Goumoens-la-Ville, Tuilerie"
994,8507970,"Villars-le-Terroir, poste"
995,8570215,"Dommartin, village"
996,8570347,"Villars-Mendraz, croisée"
997,8570344,"Hermenches, Moille-Robert"
998,8570343,"Rossenges, croisée"
999,8504019,Bressonnaz
999,8579243,"Bressonnaz, village"
1000,8504903,"Chavannes-sur-Moudon, La Croix"
1001,8577650,"Chavannes-sur-Moudon, village"
1002,8504279,"Vuarmarens, village"
1003,8504279,"Vuarmarens, village"
1004,8504976,"Siviriez, En Jogne"
1005,8504976,"Siviriez, En Jogne"
1006,8501154,Les Esserts-de-Rive
1007,8579138,"L'Abbaye, Les Collondés"
1008,8570156,"La Coudre (L'Isle), village"
1009,8570155,"Mont-la-Ville, Le Battoir"
1010,8570154,"Mont-la-Ville, poste"
1010,8570155,"Mont-la-Ville, Le Battoir"
1011,8595610,"Chevilly, Fontaines"
1012,8595610,"Chevilly, Fontaines"
1013,8570141,"Eclépens, collège"
1014,8570141,"Eclépens, collège"
1015,8570187,"Oulens-sous-Echallens, collège"
1016,8570301,"Echallens, La Fontaine"
1017,8501178,Grésaley
1018,8570215,"Dommartin, village"
1019,8570215,"Dommartin, village"
1020,8570219,"Chardonney, village"
1021,8570218,"Montaubion, croisée"
1021,8570219,"Chardonney, village"
1022,8583396,"Villars-Mendraz, Petite Route"
1022,8570347,"Villars-Mendraz, croisée"
1023,8570344,"Hermenches, Moille-Robert"
1024,8577701,"Montet (Glâne), village"
1025,8504279,"Vuarmarens, village"
1026,8504976,"Siviriez, En Jogne"
1027,8579139,"L'Abbaye, Groenroud"
1028,8570156,"La Coudre (L'Isle), village"
1029,8595610,"Chevilly, Fontaines"
1030,8570186,"Oulens-sous-Echallens,Gd Salle"
1031,8570187,"Oulens-sous-Echallens, collège"
1031,8570186,"Oulens-sous-Echallens,Gd Salle"
1032,8570181,"Echallens, route de Cossonay"
1033,8570202,"Echallens, Les Coulisses"
1033,8570181,"Echallens, route de Cossonay"
1034,8570202,"Echallens, Les Coulisses"
1034,8570181,"Echallens, route de Cossonay"
1034,8501173,Echallens
1034,8570180,"Echallens, Château"
1034,8570238,"Echallens, gare"
1035,8570203,"Echallens, place Emile Gardaz"
1035,8501174,Sur Roche
1036,8501178,Grésaley
1036,8570205,"Echallens, Les Trois-Sapins"
1036,8570204,"Echallens, La Robellaz"
1037,8570217,"Villars-Tiercelin, M. Villars"
1038,8570215,"Dommartin, village"
1039,8570219,"Chardonney, village"
1040,8570219,"Chardonney, village"
1041,8570175,"Villars-Mendraz, Praz-Longet"
1042,8570175,"Villars-Mendraz, Praz-Longet"
1043,8583396,"Villars-Mendraz, Petite Route"
1044,8570345,"Hermenches, village"
1045,8570345,"Hermenches, village"
1045,8570344,"Hermenches, Moille-Robert"
1046,8577701,"Montet (Glâne), village"
1046,8577700,"Montet (Glâne), Les Jordils"
1047,8577700,"Montet (Glâne), Les Jordils"
1048,8504279,"Vuarmarens, village"
1049,8501154,Les Esserts-de-Rive
1050,8570157,"La Coudre (L'Isle),bas village"
1051,8595611,"Dizy, village"
1052,8583403,"Lussery-Villars,pl. de Lussery"
1053,8583402,"Lussery-Villars, rue Villars"
1054,8583402,"Lussery-Villars, rue Villars"
1055,8583402,"Lussery-Villars, rue Villars"
1056,8570186,"Oulens-sous-Echallens,Gd Salle"
1057,8570183,"St-Barthélemy, village"
1057,8570184,"St-Barthélemy, Château"
1058,8570182,"St-Barthélemy, Champ Cadet"
1058,8570183,"St-Barthélemy, village"
1059,8570181,"Echallens, route de Cossonay"
1060,8501173,Echallens
1060,8570238,"Echallens, gare"
1061,8501174,Sur Roche
1061,8570203,"Echallens, place Emile Gardaz"
1062,8570205,"Echallens, Les Trois-Sapins"
1063,8570206,"Poliez-le-Grand, Der. Le Chêne"
1064,8570206,"Poliez-le-Grand, Der. Le Chêne"
1064,8570207,"Poliez-le-Grand, village"
1065,8570209,"Poliez-le-Grand, Bois-la-Croix"
1066,8570209,"Poliez-le-Grand, Bois-la-Croix"
1067,8570346,"Peney-le-Jorat, Moulin Peney"
1068,8570345,"Hermenches, village"
1069,8588154,"Syens, Clos du Château"
1070,8504162,"Syens, Champ-du-Chêne"
1071,8501154,Les Esserts-de-Rive
1072,8579140,Vers-Chez-Grosjean
1073,8595611,"Dizy, village"
1074,8583403,"Lussery-Villars,pl. de Lussery"
1075,8583402,"Lussery-Villars, rue Villars"
1076,8570185,"Bettens, croisée"
1077,8570184,"St-Barthélemy, Château"
1077,8570183,"St-Barthélemy, village"
1078,8570183,"St-Barthélemy, village"
1078,8570182,"St-Barthélemy, Champ Cadet"
1079,8570182,"St-Barthélemy, Champ Cadet"
1080,8570181,"Echallens, route de Cossonay"
1081,8501173,Echallens
1082,8501173,Echallens
1083,8570206,"Poliez-le-Grand, Der. Le Chêne"
1084,8570208,"Poliez-le-Grand, La Sauvenière"
1085,8579669,"Poliez-Pittet, collège"
1085,8570210,"Poliez-Pittet, Grands-Champs"
1086,8570174,"Peney-le-Jorat, poste"
1087,8570174,"Peney-le-Jorat, poste"
1088,8570346,"Peney-le-Jorat, Moulin Peney"
1089,8591934,"Vucherens, Closy"
1090,8577702,"Montet (Glâne), La Moille"
1091,8577702,"Montet (Glâne), La Moille"
1092,8501155,Le Rocheray
1092,8530622,Le Rocheray NLJ
1093,8579140,Vers-Chez-Grosjean
1094,8570138,"Cuarnens, Moulin-Dessus"
1095,8570137,"Cuarnens, Le Pont"
1095,8570138,"Cuarnens, Moulin-Dessus"
1096,8570137,"Cuarnens, Le Pont"
1097,8583403,"Lussery-Villars,pl. de Lussery"
1098,8570185,"Bettens, croisée"
1099,8570185,"Bettens, croisée"
1100,8579669,"Poliez-Pittet, collège"
1101,8570211,"Poliez-Pittet, Les Roches"
1101,8579669,"Poliez-Pittet, collège"
1102,8570212,"Poliez-Pittet, village"
1102,8570211,"Poliez-Pittet, Les Roches"
1103,8570212,"Poliez-Pittet, village"
1104,8570216,"Villars-Tiercelin, Fontaines"
1105,8570216,"Villars-Tiercelin, Fontaines"
1106,8570173,"Peney-le-Jorat, Chalet Renards"
1107,8570174,"Peney-le-Jorat, poste"
1108,8570174,"Peney-le-Jorat, poste"
1109,8570346,"Peney-le-Jorat, Moulin Peney"
1110,8588153,La Râpe VD
1111,8591934,"Vucherens, Closy"
1112,8577702,"Montet (Glâne), La Moille"
1113,8501156,Solliat-Golisse
1114,8530622,Le Rocheray NLJ
1115,8593530,"Les Bioux, Les Tâches"
1116,8579141,"Les Bioux, école"
1117,8501099,L'Isle
1118,8595661,"L'Isle, Les Tigneuses"
1119,8595661,"L'Isle, Les Tigneuses"
1120,8570137,"Cuarnens, Le Pont"
1121,8570137,"Cuarnens, Le Pont"
1122,8570134,"La Chaux (Cossonay), village"
1123,8570109,"Cossonay-Ville, centre"
1124,8501298,"Daillens, village"
1125,8583673,"Daillens, Les Montets"
1126,8570185,"Bettens, croisée"
1127,8570185,"Bettens, croisée"
1128,8507655,"Bioley-Orjulaz, chapelle"
1129,8570178,"Bottens, croisée"
1130,8570212,"Poliez-Pittet, village"
1131,8570212,"Poliez-Pittet, village"
1132,8570172,"Villars-Tiercelin, village"
1132,8570216,"Villars-Tiercelin, Fontaines"
1133,8570433,"Ropraz, village"
1134,8588153,La Râpe VD
1135,8588153,La Râpe VD
1136,8504163,"Vucherens, village"
1137,8504163,"Vucherens, village"
1138,8595468,"Le Sentier, La Golisse"
1139,8501156,Solliat-Golisse
1140,8501156,Solliat-Golisse
1141,8579143,"Les Bioux, AVJ"
1141,8501776,"Les Bioux, Les Charmilles"
1142,8579143,"Les Bioux, AVJ"
1142,8593530,"Les Bioux, Les Tâches"
1143,8593530,"Les Bioux, Les Tâches"
1144,8595649,"L'Isle, gare"
1144,8501099,L'Isle
1145,8595661,"L'Isle, Les Tigneuses"
1145,8501099,L'Isle
1145,8595649,"L'Isle, gare"
1146,8570134,"La Chaux (Cossonay), village"
1147,8570134,"La Chaux (Cossonay), village"
1148,8582737,"Cossonay, La Condémine"
1149,8570109,"Cossonay-Ville, centre"
1150,8570109,"Cossonay-Ville, centre"
1151,8501298,"Daillens, village"
1152,8583673,"Daillens, Les Montets"
1153,8570185,"Bettens, croisée"
1154,8507655,"Bioley-Orjulaz, chapelle"
1155,8507655,"Bioley-Orjulaz, chapelle"
1156,8501172,Assens
1157,8570178,"Bottens, croisée"
1158,8583395,"Villars-Tiercelin, La Sapelle"
1159,8570433,"Ropraz, village"
1160,8504164,"Vulliens, Halte TL"
1161,8504163,"Vucherens, village"
1162,8504163,"Vucherens, village"
1163,8504163,"Vucherens, village"
1164,8595469,"Le Sentier, temple"
1165,8595468,"Le Sentier, La Golisse"
1165,8595469,"Le Sentier, temple"
1166,8501776,"Les Bioux, Les Charmilles"
1167,8595650,"Montricher, Grand Faubourg"
1168,8595650,"Montricher, Grand Faubourg"
1169,8595649,"L'Isle, gare"
1170,8570133,"La Chaux (Cossonay), Ittens"
1170,8570134,"La Chaux (Cossonay), village"
1171,8582737,"Cossonay, La Condémine"
1172,8570109,"Cossonay-Ville, centre"
1172,8530003,Cossonay-Ville
1173,8530003,Cossonay-Ville
1174,8570130,"Penthalaz, poste"
1175,8570131,"Penthalaz, village"
1176,8501172,Assens
1177,8501172,Assens
1178,8501172,Assens
1179,8501172,Assens
1180,8570178,"Bottens, croisée"
1181,8570178,"Bottens, croisée"
1182,8570178,"Bottens, croisée"
1183,8570178,"Bottens, croisée"
1184,8570432,"Corcelles-le-Jt, Champ-la-Dame"
1185,8570432,"Corcelles-le-Jt, Champ-la-Dame"
1186,8570433,"Ropraz, village"
1187,8570433,"Ropraz, village"
1188,8504164,"Vulliens, Halte TL"
1189,8504164,"Vulliens, Halte TL"
1190,8577660,"Rue, L'Abergement"
1191,8530783,Chez-le-Maître-Ecoles
1192,8579146,"Le Sentier-Orient, gare"
1193,8595469,"Le Sentier, temple"
1193,8579146,"Le Sentier-Orient, gare"
1193,8501157,Sentier-Orient
1194,8579145,"Orient, Crêt"
1195,8579145,"Orient, Crêt"
1196,8579145,"Orient, Crêt"
1197,8501089,Villars-Bozon
1198,8570136,"Chavannes-le-Veyron, croisée"
1199,8582737,"Cossonay, La Condémine"
1200,8582737,"Cossonay, La Condémine"
1201,8570096,"Cossonay-Ville, Pré aux Moines"
1201,8570109,"Cossonay-Ville, centre"
1201,8530003,Cossonay-Ville
1202,8570130,"Penthalaz, poste"
1203,8570130,"Penthalaz, poste"
1204,8583636,"Boussens, Chevrine"
1205,8501172,Assens
1206,8501172,Assens
1207,8570179,"Bottens, La Rustériaz"
1208,8570169,"Froideville, Laiterie"
1209,8570431,"Corcelles-le-Jorat, village"
1210,8570432,"Corcelles-le-Jt, Champ-la-Dame"
1211,8570432,"Corcelles-le-Jt, Champ-la-Dame"
1212,8570433,"Ropraz, village"
1213,8570433,"Ropraz, village"
1214,8504165,"Carrouge VD, centre"
1215,8504164,"Vulliens, Halte TL"
1216,8504164,"Vulliens, Halte TL"
1217,8577660,"Rue, L'Abergement"
1218,8577660,"Rue, L'Abergement"
1219,8530783,Chez-le-Maître-Ecoles
1220,8530783,Chez-le-Maître-Ecoles
1221,8530783,Chez-le-Maître-Ecoles
1222,8530783,Chez-le-Maître-Ecoles
1223,8501157,Sentier-Orient
1224,8579144,"Orient, centre"
1225,8595650,"Montricher, Grand Faubourg"
1226,8595650,"Montricher, Grand Faubourg"
1227,8570110,"Villars-Bozon, village"
1228,8570110,"Villars-Bozon, village"
1229,8570136,"Chavannes-le-Veyron, croisée"
1230,8583378,"Cossonay-Ville, Chien-Boeuf"
1231,8583378,"Cossonay-Ville, Chien-Boeuf"
1232,8583378,"Cossonay-Ville, Chien-Boeuf"
1233,8570129,"Cossonay-Penthalaz, gare"
1233,8593755,Cossonay-Penthalaz (funi)
1233,8501115,Cossonay-Penthalaz
1234,8501115,Cossonay-Penthalaz
1234,8593755,Cossonay-Penthalaz (funi)
1234,8570129,"Cossonay-Penthalaz, gare"
1234,8581114,"Penthalaz, Verney"
1235,8570066,"Bournens, école"
1236,8570066,"Bournens, école"
1237,8583636,"Boussens, Chevrine"
1238,8581344,"Boussens, village"
1238,8583636,"Boussens, Chevrine"
1239,8570177,"Bottens, Chalet-Coucou"
1240,8570179,"Bottens, La Rustériaz"
1241,8570431,"Corcelles-le-Jorat, village"
1242,8570431,"Corcelles-le-Jorat, village"
1243,8504165,"Carrouge VD, centre"
1244,8504978,"Promasens, église"
1245,8570024,"Le Brassus, gare"
1246,8530783,Chez-le-Maître-Ecoles
1247,8530783,Chez-le-Maître-Ecoles
1248,8595467,"Orient, Paul Golay"
1249,8570112,"Montricher, Champet"
1250,8583297,"Montricher, Petit Faubourg"
1250,8570112,"Montricher, Champet"
1250,8501734,"Montricher, village"
1251,8583297,"Montricher, Petit Faubourg"
1252,8570108,"Senarclens, village"
1253,8570108,"Senarclens, village"
1254,8570095,"Allens, village"
1255,8570132,"Penthaz, Rio"
1256,8570132,"Penthaz, Rio"
1257,8501299,"Penthaz, village"
1258,8570067,"Bournens, Au Mont"
1258,8570066,"Bournens, école"
1259,8581344,"Boussens, village"
1260,8501171,Etagnières
1261,8501171,Etagnières
1262,8501171,Etagnières
1263,8570176,"Bretigny-sur-Morrens, croisée"
1264,8570176,"Bretigny-sur-Morrens, croisée"
1265,8570177,"Bottens, Chalet-Coucou"
1266,8570167,"Froideville, village"
1267,8570168,"Froideville, croisée"
1267,8570167,"Froideville, village"
1268,8570169,"Froideville, Laiterie"
1268,8570168,"Froideville, croisée"
1269,8570169,"Froideville, Laiterie"
1270,8591905,"Ropraz, Ussières"
1271,8591904,"Carrouge VD, Ecorcheboeuf"
1272,8504166,"Mézières VD, station"
1273,8504166,"Mézières VD, station"
1274,8504165,"Carrouge VD, centre"
1275,8587962,"Promasens, Les Planches"
1276,8570024,"Le Brassus, gare"
1277,8570024,"Le Brassus, gare"
1278,8530783,Chez-le-Maître-Ecoles
1279,8595464,"Le Brassus, Le Campe"
1280,8570112,"Montricher, Champet"
1281,8583297,"Montricher, Petit Faubourg"
1282,8501098,Montricher
1282,8570111,"Montricher, gare"
1283,8570107,"Grancy, collège"
1284,8570108,"Senarclens, village"
1285,8570108,"Senarclens, village"
1286,8570132,"Penthaz, Rio"
1287,8501299,"Penthaz, village"
1288,8501299,"Penthaz, village"
1289,8570068,"Sullens, Auberge"
1290,8570068,"Sullens, Auberge"
1291,8581344,"Boussens, village"
1292,8501171,Etagnières
1293,8581185,"Morrens VD, place du village"
1294,8570176,"Bretigny-sur-Morrens, croisée"
1295,8570176,"Bretigny-sur-Morrens, croisée"
1296,8570176,"Bretigny-sur-Morrens, croisée"
1297,8570167,"Froideville, village"
1298,8570169,"Froideville, Laiterie"
1299,8570169,"Froideville, Laiterie"
1300,8570430,"Corcelles-le-Jorat, Le Torel"
1301,8591905,"Ropraz, Ussières"
1302,8570425,"Carrouge VD, Croix d'Or"
1302,8591904,"Carrouge VD, Ecorcheboeuf"
1303,8504166,"Mézières VD, station"
1303,8570425,"Carrouge VD, Croix d'Or"
1303,8504758,"Mézières VD, village"
1304,8504166,"Mézières VD, station"
1305,8570423,"Ferlens VD, Champ des Oches"
1306,8570024,"Le Brassus, gare"
1307,8570024,"Le Brassus, gare"
1308,8595464,"Le Brassus, Le Campe"
1309,8501088,Tuilerie
1310,8501087,Mauraz
1311,8570107,"Grancy, collège"
1311,8570106,"Grancy, Les Pâles"
1312,8570107,"Grancy, collège"
1313,8570108,"Senarclens, village"
1314,8501299,"Penthaz, village"
1315,8501299,"Penthaz, village"
1316,8570068,"Sullens, Auberge"
1317,8570068,"Sullens, Auberge"
1318,8570068,"Sullens, Auberge"
1319,8587727,Les Ripes
1320,8581185,"Morrens VD, place du village"
1320,8581186,"Morrens VD, poste"
1321,8581186,"Morrens VD, poste"
1322,8570164,"Cugy VD, Le Moulin"
1323,8570164,"Cugy VD, Le Moulin"
1324,8570176,"Bretigny-sur-Morrens, croisée"
1325,8570176,"Bretigny-sur-Morrens, croisée"
1326,8570167,"Froideville, village"
1327,8592224,"Ropraz, Corcelles-Jorat"
1328,8592224,"Ropraz, Corcelles-Jorat"
1329,8592224,"Ropraz, Corcelles-Jorat"
1330,8592225,"Ropraz, Home du Jorat"
1330,8592224,"Ropraz, Corcelles-Jorat"
1331,8595474,"Mézières VD, centre médical"
1331,8504758,"Mézières VD, village"
1332,8595474,"Mézières VD, centre médical"
1333,8570423,"Ferlens VD, Champ des Oches"
1334,8595466,"Le Brassus, Marchairuz"
1335,8570023,"Le Brassus, place de la Lande"
1335,8595465,"Le Brassus, Les Horlogers"
1336,8570024,"Le Brassus, gare"
1336,8595462,"Le Brassus,ancienne imprimerie"
1336,8570023,"Le Brassus, place de la Lande"
1337,8501087,Mauraz
1338,8570106,"Grancy, Les Pâles"
1339,8570094,"Gollion, village"
1340,8570068,"Sullens, Auberge"
1341,8577645,"Cheseaux-s.-Lausanne,Martheray"
1342,8570064,"Cheseaux-sur-Lausanne, Pâquis"
1343,8570064,"Cheseaux-sur-Lausanne, Pâquis"
1344,8587727,Les Ripes
1345,8581185,"Morrens VD, place du village"
1346,8581186,"Morrens VD, poste"
1347,8581186,"Morrens VD, poste"
1348,8573634,"Cugy VD, village"
1348,8570164,"Cugy VD, Le Moulin"
1349,8570164,"Cugy VD, Le Moulin"
1349,8573634,"Cugy VD, village"
1350,8570164,"Cugy VD, Le Moulin"
1351,8570164,"Cugy VD, Le Moulin"
1352,8570167,"Froideville, village"
1353,8570417,"Montpreveyres, village"
1354,8592224,"Ropraz, Corcelles-Jorat"
1355,8595474,"Mézières VD, centre médical"
1356,8570422,"Ferlens VD, Le Moulin"
1356,8570423,"Ferlens VD, Champ des Oches"
1357,8570423,"Ferlens VD, Champ des Oches"
1358,8570423,"Ferlens VD, Champ des Oches"
1359,8577661,"Gillarens, bif. rte cantonale"
1360,8577661,"Gillarens, bif. rte cantonale"
1361,8577661,"Gillarens, bif. rte cantonale"
1362,8577678,"Pont (Veveyse), village"
1363,8577678,"Pont (Veveyse), village"
1364,8595466,"Le Brassus, Marchairuz"
1364,8595465,"Le Brassus, Les Horlogers"
1364,8570023,"Le Brassus, place de la Lande"
1365,8570023,"Le Brassus, place de la Lande"
1365,8595465,"Le Brassus, Les Horlogers"
1366,8570113,"Mollens VD, Champou"
1367,8501087,Mauraz
1368,8501087,Mauraz
1369,8570094,"Gollion, village"
1370,8570094,"Gollion, village"
1371,8593782,"Vufflens-la-Ville, gare"
1372,8593780,"Vufflens-la-Ville, Cuvillard"
1373,8588849,"Mex VD, ch. de la Richardaz"
1374,8577645,"Cheseaux-s.-Lausanne,Martheray"
1375,8577645,"Cheseaux-s.-Lausanne,Martheray"
1376,8570063,"Cheseaux-sur-Lausanne, gare"
1376,8501169,Cheseaux
1377,8501169,Cheseaux
1378,8581185,"Morrens VD, place du village"
1379,8504178,"Cugy VD, poste"
1379,8573634,"Cugy VD, village"
1380,8573634,"Cugy VD, village"
1381,8570417,"Montpreveyres, village"
1382,8595474,"Mézières VD, centre médical"
1383,8570422,"Ferlens VD, Le Moulin"
1384,8570421,"Servion, Mannessivaz"
1385,8570437,"Vuibroye, Champacot"
1386,8570437,"Vuibroye, Champacot"
1387,8577661,"Gillarens, bif. rte cantonale"
1388,8577661,"Gillarens, bif. rte cantonale"
1389,8577679,"Oron-le-Châtel, La Chavanne"
1390,8577678,"Pont (Veveyse), village"
1391,8577678,"Pont (Veveyse), village"
1392,8570452,"St-Martin FR, village"
1393,8570453,"Fiaugères, En Saubaz"
1394,8595463,"Le Brassus, Bas-du-Chenit"
1395,8595463,"Le Brassus, Bas-du-Chenit"
1396,8595466,"Le Brassus, Marchairuz"
1397,8570114,"Mollens VD, village"
1398,8570113,"Mollens VD, Champou"
1398,8570114,"Mollens VD, village"
1399,8501097,Pampigny-Sévery
1400,8501097,Pampigny-Sévery
1401,8501097,Pampigny-Sévery
1402,8570105,"Cottens VD, La Tuilière"
1403,8501269,"Vullierens, village"
1404,8570094,"Gollion, village"
1405,8593782,"Vufflens-la-Ville, gare"
1405,8593780,"Vufflens-la-Ville, Cuvillard"
1406,8593780,"Vufflens-la-Ville, Cuvillard"
1406,8593781,"Vufflens-la-Ville, église"
1407,8588852,"Mex VD, poste"
1407,8588853,"Mex VD, village"
1408,8588851,"Mex VD, ch. du Trésy"
1408,8588850,"Mex VD, ch. de Sous-Valeyres"
1408,8588849,"Mex VD, ch. de la Richardaz"
1409,8588849,"Mex VD, ch. de la Richardaz"
1410,8595147,"Cheseaux-s.-Lausanne,Châtelard"
1411,8577645,"Cheseaux-s.-Lausanne,Martheray"
1412,8501170,Bel-Air LEB
1413,8501170,Bel-Air LEB
1414,8592139,"Le Mont-sur-Lausanne, Budron"
1415,8591940,"Cugy VD, Cavenette"
1416,8591940,"Cugy VD, Cavenette"
1417,8504178,"Cugy VD, poste"
1418,8592144,"Montpreveyres, Riau-Graubon"
1419,8592144,"Montpreveyres, Riau-Graubon"
1420,8570417,"Montpreveyres, village"
1421,8570417,"Montpreveyres, village"
1422,8570421,"Servion, Mannessivaz"
1423,8570421,"Servion, Mannessivaz"
1424,8570437,"Vuibroye, Champacot"
1425,8570437,"Vuibroye, Champacot"
1426,8570437,"Vuibroye, Champacot"
1427,8579800,"Oron-la-Ville, collège"
1428,8570449,"Oron-le-Châtel, poste"
1429,8577679,"Oron-le-Châtel, La Chavanne"
1430,8570450,Chesalles-sur-Oron
1431,8570451,"Bussigny-sur-Oron, croisée"
1432,8595463,"Le Brassus, Bas-du-Chenit"
1433,8570115,"Mollens VD, Forchy"
1434,8501088,Tuilerie
1435,8501097,Pampigny-Sévery
1436,8570105,"Cottens VD, La Tuilière"
1436,8570103,"Cottens VD, La Caroline"
1436,8570104,"Cottens VD, Laiterie"
1437,8570103,"Cottens VD, La Caroline"
1438,8501269,"Vullierens, village"
1439,8501269,"Vullierens, village"
1440,8501269,"Vullierens, village"
1441,8593782,"Vufflens-la-Ville, gare"
1442,8593781,"Vufflens-la-Ville, église"
1443,8588853,"Mex VD, village"
1444,8588851,"Mex VD, ch. du Trésy"
1445,8588850,"Mex VD, ch. de Sous-Valeyres"
1445,8588851,"Mex VD, ch. du Trésy"
1445,8588849,"Mex VD, ch. de la Richardaz"
1446,8588849,"Mex VD, ch. de la Richardaz"
1447,8595147,"Cheseaux-s.-Lausanne,Châtelard"
1448,8501168,Vernand-Camarès
1449,8592139,"Le Mont-sur-Lausanne, Budron"
1450,8592139,"Le Mont-sur-Lausanne, Budron"
1451,8591940,"Cugy VD, Cavenette"
1452,8592037,"Lausanne, Ecole Hôtelière"
1453,8592037,"Lausanne, Ecole Hôtelière"
1454,8579240,"Montpreveyres, Balances"
1455,8504169,"Les Cullayes, village"
1456,8504169,"Les Cullayes, village"
1457,8504169,"Les Cullayes, village"
1458,8581429,"Servion, Grange Rouge"
1459,8581429,"Servion, Grange Rouge"
1460,8557026,"Servion, Vieux-Collège"
1460,8570420,"Servion, poste/croisée"
1461,8557026,"Servion, Vieux-Collège"
1462,8570437,"Vuibroye, Champacot"
1463,8579800,"Oron-la-Ville, collège"
1464,8577679,"Oron-le-Châtel, La Chavanne"
1464,8570449,"Oron-le-Châtel, poste"
1465,8570450,Chesalles-sur-Oron
1466,8570451,"Bussigny-sur-Oron, croisée"
1466,8570452,"St-Martin FR, village"
1467,8570452,"St-Martin FR, village"
1468,8570453,"Fiaugères, En Saubaz"
1469,8570453,"Fiaugères, En Saubaz"
1470,8570453,"Fiaugères, En Saubaz"
1471,8570104,"Cottens VD, Laiterie"
1472,8570103,"Cottens VD, La Caroline"
1473,8570103,"Cottens VD, La Caroline"
1474,8501269,"Vullierens, village"
1475,8570093,"Aclens, collège"
1476,8570093,"Aclens, collège"
1477,8583891,"Vufflens-Aclens, zone industr."
1478,8583891,"Vufflens-Aclens, zone industr."
1479,8583748,"Villars-Ste-Croix, En Coulaye"
1479,8588847,"Villars-Ste-Croix, village"
1480,8588848,"Villars-Ste-Croix, Le Sansy"
1481,8501168,Vernand-Camarès
1482,8501168,Vernand-Camarès
1483,8592142,"Le Mont-sur-Lausanne, Fougères"
1484,8592142,"Le Mont-sur-Lausanne, Fougères"
1485,8592117,"Lausanne, Ste-Catherine"
1486,8504169,"Les Cullayes, village"
1487,8504169,"Les Cullayes, village"
1488,8570419,"Les Cullayes, Pra la Tête"
1489,8581429,"Servion, Grange Rouge"
1490,8570420,"Servion, poste/croisée"
1490,8570462,"Servion, Clos de l'Auberge"
1490,8581429,"Servion, Grange Rouge"
1491,8570458,"Vuibroye, village"
1492,8570458,"Vuibroye, village"
1493,8570438,"Châtillens, gare"
1494,8579800,"Oron-la-Ville, collège"
1494,8580757,"Oron-la-Ville, Pralets"
1495,8504775,"Oron-la-Ville, centre"
1495,8579800,"Oron-la-Ville, collège"
1496,8577681,"Oron-le-Châtel, gare"
1497,8577681,"Oron-le-Châtel, gare"
1498,8583253,"Bussigny-sur-Oron, La Resse"
1499,8570452,"St-Martin FR, village"
1500,8570452,"St-Martin FR, village"
1501,8570444,La Rogivue
1502,8570445,"La Rougève, village"
1503,8570116,"Mollens VD, Les Chaux"
1504,8570093,"Aclens, collège"
1505,8570093,"Aclens, collège"
1506,8583891,"Vufflens-Aclens, zone industr."
1507,8594270,"Mex VD, Faraz"
1508,8594270,"Mex VD, Faraz"
1509,8583748,"Villars-Ste-Croix, En Coulaye"
1509,8588847,"Villars-Ste-Croix, village"
1510,8588848,"Villars-Ste-Croix, Le Sansy"
1511,8501166,Romanel-sur-Lausanne
1512,8501166,Romanel-sur-Lausanne
1513,8501166,Romanel-sur-Lausanne
1514,8504177,"Le Mont-s.-Laus., Grand-Mont"
1515,8504177,"Le Mont-s.-Laus., Grand-Mont"
1515,8592141,"Le Mont-sur-Lausanne, Etavez"
1516,8592141,"Le Mont-sur-Lausanne, Etavez"
1517,8579235,"Le Mont-sur-Lausanne, Coppoz"
1518,8592006,"Lausanne, Chalet-Fontaine"
1519,8592006,"Lausanne, Chalet-Fontaine"
1520,8570419,"Les Cullayes, Pra la Tête"
1521,8504997,"Servion, Zoo-Tropiquarium"
1522,8570462,"Servion, Clos de l'Auberge"
1523,8570459,"Châtillens, collège"
1524,8570438,"Châtillens, gare"
1525,8580757,"Oron-la-Ville, Pralets"
1526,8570439,"Oron-la-Ville, Pré à l'Abbé"
1527,8570439,"Oron-la-Ville, Pré à l'Abbé"
1528,8577681,"Oron-le-Châtel, gare"
1529,8583253,"Bussigny-sur-Oron, La Resse"
1530,8579741,"Bussigny-sur-Oron, collège"
1530,8583253,"Bussigny-sur-Oron, La Resse"
1531,8579741,"Bussigny-sur-Oron, collège"
1532,8570444,La Rogivue
1533,8570445,"La Rougève, village"
1534,8570445,"La Rougève, village"
1535,8501892,"Berolle, église"
1536,8570117,"Berolle, Les Molliettes"
1536,8501892,"Berolle, église"
1537,8501085,Ballens-Froideville
1538,8501084,Le Manège
1539,8501084,Le Manège
1540,8501084,Le Manège
1541,8570103,"Cottens VD, La Caroline"
1542,8501268,"Colombier VD, poste"
1543,8583891,"Vufflens-Aclens, zone industr."
1544,8583891,"Vufflens-Aclens, zone industr."
1545,8594178,"Bussigny VD, Rente"
1546,8588846,"Villars-Ste-Croix, Croix Péage"
1546,8591937,"Crissier, Croix-Péage"
1547,8588845,"Crissier, Timonet"
1548,8588845,"Crissier, Timonet"
1549,8501167,Le Lussex
1550,8501166,Romanel-sur-Lausanne
1551,8501166,Romanel-sur-Lausanne
1552,8501166,Romanel-sur-Lausanne
1553,8504177,"Le Mont-s.-Laus., Grand-Mont"
1554,8504177,"Le Mont-s.-Laus., Grand-Mont"
1555,8579235,"Le Mont-sur-Lausanne, Coppoz"
1555,8504177,"Le Mont-s.-Laus., Grand-Mont"
1556,8579235,"Le Mont-sur-Lausanne, Coppoz"
1557,8579235,"Le Mont-sur-Lausanne, Coppoz"
1558,8579235,"Le Mont-sur-Lausanne, Coppoz"
1559,8591969,"Epalinges, Polny"
1560,8591962,"Epalinges, Ballègue"
1561,8591962,"Epalinges, Ballègue"
1562,8592037,"Lausanne, Ecole Hôtelière"
1562,8592130,"Lausanne, Vert-Bois"
1562,8587549,"Lausanne, La Vulliette"
1563,8592100,"Lausanne, Praz-Collet"
1563,8592015,"Lausanne, Chevreuils"
1564,8592006,"Lausanne, Chalet-Fontaine"
1565,8592117,"Lausanne, Ste-Catherine"
1566,8579250,"Mollie-Margot, centre"
1567,8579250,"Mollie-Margot, centre"
1568,8579250,"Mollie-Margot, centre"
1569,8504997,"Servion, Zoo-Tropiquarium"
1570,8587545,"Essertes, Le Pralet"
1571,8570461,"Essertes, collège"
1572,8570460,"Châtillens, Le Péleret"
1573,8570460,"Châtillens, Le Péleret"
1574,8570439,"Oron-la-Ville, Pré à l'Abbé"
1575,8570444,La Rogivue
1576,8570445,"La Rougève, village"
1577,8501892,"Berolle, église"
1578,8501095,Ballens
1579,8501095,Ballens
1580,8570080,"Apples, Hôtel de Commune"
1580,8595647,"Apples, Fondation Baud"
1581,8501084,Le Manège
1582,8501268,"Colombier VD, poste"
1583,8501268,"Colombier VD, poste"
1584,8504656,"Romanel-sur-Morges, poste"
1585,8504656,"Romanel-sur-Morges, poste"
1586,8581919,"Bussigny VD, ch. de Bellevue"
1587,8581919,"Bussigny VD, ch. de Bellevue"
1587,8581921,"Bussigny VD, pl. du Vieux-Four"
1587,8581920,"Bussigny VD, ch. de la Sauge"
1588,8581916,"Bussigny VD, Condémine"
1588,8594178,"Bussigny VD, Rente"
1588,8581922,"Bussigny VD, ch. de Riettaz"
1588,8581921,"Bussigny VD, pl. du Vieux-Four"
1588,8594177,"Bussigny VD, Cocagne-Sullens"
1589,8594178,"Bussigny VD, Rente"
1589,8591936,"Crissier, Closalet"
1590,8591936,"Crissier, Closalet"
1590,8588845,"Crissier, Timonet"
1590,8588843,"Crissier, centre"
1591,8588843,"Crissier, centre"
1592,8501167,Le Lussex
1593,8501167,Le Lussex
1594,8592140,"Le Mont-sur-Lausanne, Côtes"
1595,8587853,"Le Mont-s.-Laus., Petit-Mont"
1596,8593845,"Le Mont-s.-Laus., Coppoz-Poste"
1596,8587853,"Le Mont-s.-Laus., Petit-Mont"
1597,8593845,"Le Mont-s.-Laus., Coppoz-Poste"
1597,8579235,"Le Mont-sur-Lausanne, Coppoz"
1598,8591969,"Epalinges, Polny"
1599,8591969,"Epalinges, Polny"
1600,8591962,"Epalinges, Ballègue"
1601,8587549,"Lausanne, La Vulliette"
1602,8591968,"Epalinges, Grand Chemin"
1602,8587549,"Lausanne, La Vulliette"
1602,8504171,"Lausanne, En Marin"
1603,8592015,"Lausanne, Chevreuils"
1603,8587548,"Lausanne, Vers-chez-les-Blanc"
1604,8592015,"Lausanne, Chevreuils"
1605,8592015,"Lausanne, Chevreuils"
1606,8592229,"Savigny, Clair-Matin"
1607,8592231,"Savigny, Grange-la-Ville"
1608,8579250,"Mollie-Margot, centre"
1609,8587545,"Essertes, Le Pralet"
1610,8587545,"Essertes, Le Pralet"
1611,8504016,Palézieux-Village
1611,8504789,"Palézieux-Village, centre"
1612,8579737,"Palézieux-Village, collège"
1612,8504789,"Palézieux-Village, centre"
1613,8570443,"Maracon, bif."
1614,8570443,"Maracon, bif."
1615,8570444,La Rogivue
1616,8501095,Ballens
1617,8501085,Ballens-Froideville
1618,8570080,"Apples, Hôtel de Commune"
1618,8501094,Apples
1618,8595648,"Apples, gare"
1619,8570080,"Apples, Hôtel de Commune"
1620,8595647,"Apples, Fondation Baud"
1621,8570102,"Colombier VD, En Plan"
1622,8570100,"St-Saphorin-sur-Morges,village"
1623,8581054,"Romanel-sur-Morges, Pra-Vuatte"
1624,8581054,"Romanel-sur-Morges, Pra-Vuatte"
1625,8581919,"Bussigny VD, ch. de Bellevue"
1626,8581917,"Bussigny VD, Collège de Dallaz"
1626,8581918,"Bussigny VD,ch.du Grand-Record"
1627,8581917,"Bussigny VD, Collège de Dallaz"
1627,8581921,"Bussigny VD, pl. du Vieux-Four"
1627,8581918,"Bussigny VD,ch.du Grand-Record"
1628,8581924,"Bussigny VD, route de Sullens"
1628,8581922,"Bussigny VD, ch. de Riettaz"
1628,8581921,"Bussigny VD, pl. du Vieux-Four"
1628,8591931,"Bussigny VD, En Buyère"
1629,8593817,"Crissier, Feleire"
1629,8591931,"Bussigny VD, En Buyère"
1629,8591936,"Crissier, Closalet"
1630,8595148,"Crissier, Chisaz"
1630,8591936,"Crissier, Closalet"
1630,8595516,"Crissier, Mongevon"
1630,8588843,"Crissier, centre"
1630,8593817,"Crissier, Feleire"
1631,8588842,"Crissier, ch. du Bré"
1631,8595148,"Crissier, Chisaz"
1631,8588843,"Crissier, centre"
1632,8588842,"Crissier, ch. du Bré"
1633,8501165,Jouxtens-Mézery
1634,8501165,Jouxtens-Mézery
1635,8592140,"Le Mont-sur-Lausanne, Côtes"
1636,8592140,"Le Mont-sur-Lausanne, Côtes"
1636,8587853,"Le Mont-s.-Laus., Petit-Mont"
1637,8587853,"Le Mont-s.-Laus., Petit-Mont"
1638,8593845,"Le Mont-s.-Laus., Coppoz-Poste"
1639,8591964,"Epalinges, Bois-Murat"
1640,8591969,"Epalinges, Polny"
1641,8591963,"Epalinges, Biolleyre"
1641,8591969,"Epalinges, Polny"
1642,8591962,"Epalinges, Ballègue"
1642,8591963,"Epalinges, Biolleyre"
1642,8591967,"Epalinges, En Praz Bin"
1643,8587546,"Epalinges, Lion d'Or"
1644,8587546,"Epalinges, Lion d'Or"
1644,8591968,"Epalinges, Grand Chemin"
1645,8592073,"Lausanne, Molliettes"
1645,8587547,"Lausanne, Chalet à Matthey"
1645,8587548,"Lausanne, Vers-chez-les-Blanc"
1646,8587548,"Lausanne, Vers-chez-les-Blanc"
1646,8592073,"Lausanne, Molliettes"
1647,8592015,"Lausanne, Chevreuils"
1648,8592233,"Savigny, Publoz"
1649,8592230,"Savigny, Crêt-Rouge"
1650,8592229,"Savigny, Clair-Matin"
1651,8592229,"Savigny, Clair-Matin"
1651,8592231,"Savigny, Grange-la-Ville"
1652,8579250,"Mollie-Margot, centre"
1653,8591973,"Forel (Lavaux), Casard"
1654,8587545,"Essertes, Le Pralet"
1655,8582200,"Les Tavernes, collège"
1656,8582200,"Les Tavernes, collège"
1657,8582202,"Palézieux, En Plan"
1657,8504789,"Palézieux-Village, centre"
1658,8504789,"Palézieux-Village, centre"
1658,8579737,"Palézieux-Village, collège"
1659,8504790,"Ecoteaux, collège"
1660,8570443,"Maracon, bif."
1661,8570119,"Bière, gare"
1662,8501094,Apples
1663,8570079,"Apples, La Mottaz"
1664,8570076,"Clarmont, village"
1665,8570075,"Vaux-sur-Morges, Bugnon"
1666,8570100,"St-Saphorin-sur-Morges,village"
1666,8570101,"St-Saphorin-sur-Morges, Cornu"
1667,8570100,"St-Saphorin-sur-Morges,village"
1668,8570100,"St-Saphorin-sur-Morges,village"
1669,8570092,"Bremblens, bas du village"
1670,8595216,"Bussigny VD, gare sud"
1670,8501117,Bussigny
1671,8595216,"Bussigny VD, gare sud"
1671,8595217,"Bussigny VD, Vallon"
1671,8501117,Bussigny
1671,8595214,"Bussigny VD, Bosquet"
1671,8581914,"Bussigny VD, gare"
1672,8591931,"Bussigny VD, En Buyère"
1672,8591930,"Bussigny VD, Croix-de-Plan"
1673,8591935,"Crissier, Arc-en-Ciel"
1673,8591931,"Bussigny VD, En Buyère"
1673,8591930,"Bussigny VD, Croix-de-Plan"
1674,8593816,"Crissier, Marcolet"
1674,8595516,"Crissier, Mongevon"
1675,8588841,"Crissier, scierie"
1675,8592204,"Renens VD, Bois-Genoud"
1676,8592204,"Renens VD, Bois-Genoud"
1677,8592203,"Renens VD, Baumettes"
1678,8501165,Jouxtens-Mézery
1679,8501164,Cery-Fleur-de-Lys
1679,8501165,Jouxtens-Mézery
1680,8592140,"Le Mont-sur-Lausanne, Côtes"
1681,8592143,"Le Mont-sur-Lausanne, Martines"
1681,8592140,"Le Mont-sur-Lausanne, Côtes"
1681,8593249,"Le Mont-sur-Lausanne, Rionzi"
1682,8592019,"Lausanne, Clochatte"
1683,8592018,"Lausanne, Cigale"
1684,8591964,"Epalinges, Bois-Murat"
1685,8589525,"Epalinges, Planches"
1686,8591965,"Epalinges, centre"
1686,8591967,"Epalinges, En Praz Bin"
1686,8591966,"Epalinges, Croix-Blanche"
1687,8591965,"Epalinges, centre"
1688,8587547,"Lausanne, Chalet à Matthey"
1689,8587547,"Lausanne, Chalet à Matthey"
1690,8504172,"Savigny, Claie-aux-Moines"
1691,8592233,"Savigny, Publoz"
1692,8592232,"Savigny, Palaz"
1693,8592229,"Savigny, Clair-Matin"
1693,8592234,"Savigny, St-Amour"
1694,8592234,"Savigny, St-Amour"
1694,8592229,"Savigny, Clair-Matin"
1695,8592231,"Savigny, Grange-la-Ville"
1696,8591975,"Forel (Lavaux), Les Confréries"
1697,8582200,"Les Tavernes, collège"
1698,8582200,"Les Tavernes, collège"
1699,8582202,"Palézieux, En Plan"
1700,8582202,"Palézieux, En Plan"
1701,8504014,Palézieux
1702,8570441,"Ecoteaux, Platta-Pierraz"
1703,8504790,"Ecoteaux, collège"
1704,8570443,"Maracon, bif."
1704,8580690,"Maracon, La Crosettaz"
1705,8570119,"Bière, gare"
1706,8501083,Reverolle
1707,8570078,"Reverolle, village"
1708,8570075,"Vaux-sur-Morges, Bugnon"
1709,8570074,"Vaux-sur-Morges, village"
1710,8570074,"Vaux-sur-Morges, village"
1711,8570101,"St-Saphorin-sur-Morges, Cornu"
1712,8570099,"St-Saphorin-sur-Morges, Pavé"
1713,8570092,"Bremblens, bas du village"
1714,8570092,"Bremblens, bas du village"
1715,8592243,"Echandens, Riaz"
1716,8595217,"Bussigny VD, Vallon"
1717,8595214,"Bussigny VD, Bosquet"
1717,8595215,"Bussigny VD, Reculan"
1717,8595217,"Bussigny VD, Vallon"
1718,8595215,"Bussigny VD, Reculan"
1719,8591935,"Crissier, Arc-en-Ciel"
1719,8591958,"Ecublens VD, Suchet-Forêt"
1719,8591939,"Crissier, Zinguerie"
1720,8593815,"Crissier, Jura"
1720,8591939,"Crissier, Zinguerie"
1720,8591958,"Ecublens VD, Suchet-Forêt"
1721,8592214,"Renens VD, Industrie"
1721,8588840,"Crissier, ch. des Noutes"
1721,8592201,"Renens VD, 1er Mai"
1722,8592203,"Renens VD, Baumettes"
1722,8592205,"Renens VD, Borjod"
1722,8592220,"Renens VD, Saugiaz"
1722,8592201,"Renens VD, 1er Mai"
1723,8592212,"Renens VD, Follieu"
1723,8592203,"Renens VD, Baumettes"
1723,8592222,"Renens VD, Sur-la-Croix"
1723,8592208,"Renens VD, Bugnon"
1724,8592208,"Renens VD, Bugnon"
1725,8592176,"Prilly, Coudraie"
1725,8501164,Cery-Fleur-de-Lys
1726,8592176,"Prilly, Coudraie"
1726,8592030,"Lausanne, Désert"
1727,8591994,"Lausanne, Blécherette"
1728,8595005,"Le Mont-sur-Lausanne,Maillefer"
1729,8592092,"Lausanne, Piécettes"
1729,8592089,"Lausanne, Pavement"
1729,8593249,"Le Mont-sur-Lausanne, Rionzi"
1729,8595004,"Lausanne, Entre-Bois"
1729,8592055,"Lausanne, Grangette"
1730,8592137,"Lausanne, Vivarium"
1730,8592019,"Lausanne, Clochatte"
1730,8592092,"Lausanne, Piécettes"
1731,8592066,"Lausanne, Libellules"
1731,8592054,"Lausanne, Grand Vennes"
1731,8592137,"Lausanne, Vivarium"
1731,8592081,"Lausanne, Montolieu"
1731,8592018,"Lausanne, Cigale"
1731,8591977,"Lausanne, Abeilles"
1732,8591977,"Lausanne, Abeilles"
1732,8591964,"Epalinges, Bois-Murat"
1733,8592128,"Lausanne, Vennes"
1733,8591971,"Epalinges, Tuileries"
1733,8579239,"Epalinges, Croisettes"
1733,8591964,"Epalinges, Bois-Murat"
1734,8579239,"Epalinges, Croisettes"
1734,8589525,"Epalinges, Planches"
1735,8591970,"Epalinges, Pré-d'Yverdon"
1736,8587550,"Montblesson, La Perronnaz"
1737,8592058,"Lausanne, Haute Combe"
1738,8504172,"Savigny, Claie-aux-Moines"
1739,8592233,"Savigny, Publoz"
1740,8592228,"Savigny, ancienne poste"
1741,8592232,"Savigny, Palaz"
1742,8592232,"Savigny, Palaz"
1742,8592230,"Savigny, Crêt-Rouge"
1743,8591975,"Forel (Lavaux), Les Confréries"
1744,8579251,"Forel (Lavaux), Cornes de Cerf"
1744,8591975,"Forel (Lavaux), Les Confréries"
1745,8579251,"Forel (Lavaux), Cornes de Cerf"
1746,8582199,"Les Thioleyres, village"
1747,8578927,"Palézieux, zone ind. En Grivaz"
1748,8578927,"Palézieux, zone ind. En Grivaz"
1748,8504014,Palézieux
1748,8570440,"Palézieux, gare"
1749,8570440,"Palézieux, gare"
1749,8504014,Palézieux
1750,8570441,"Ecoteaux, Platta-Pierraz"
1751,8570442,"Ecoteaux, laiterie"
1751,8504790,"Ecoteaux, collège"
1752,8580690,"Maracon, La Crosettaz"
1752,8504790,"Ecoteaux, collège"
1753,8501096,Bière
1753,8570119,"Bière, gare"
1754,8570119,"Bière, gare"
1754,8501096,Bière
1755,8570075,"Vaux-sur-Morges, Bugnon"
1756,8570074,"Vaux-sur-Morges, village"
1757,8570098,"Echichens, Haute-Pierre"
1758,8588875,"Echandens, centre"
1759,8592243,"Echandens, Riaz"
1760,8592244,"Echandens, Chocolatière"
1761,8595215,"Bussigny VD, Reculan"
1762,8591955,"Ecublens VD, place de sport"
1763,8591955,"Ecublens VD, place de sport"
1763,8591953,"Ecublens VD, Parc"
1763,8591958,"Ecublens VD, Suchet-Forêt"
1764,8593869,"Chavannes-près-Renens,Glycines"
1764,8530749,"Renens VD, gare"
1764,8591958,"Ecublens VD, Suchet-Forêt"
1764,8501218,"Ecublens VD, Epenex"
1765,8530749,"Renens VD, gare"
1765,8588839,"Renens VD, av. du 14 Avril"
1765,8588838,"Renens VD, gare nord"
1765,8588983,"Renens VD, gare sud"
1765,8593869,"Chavannes-près-Renens,Glycines"
1765,8592214,"Renens VD, Industrie"
1765,8501118,Renens VD
1765,8592202,"Renens VD, Avenir"
1765,8592201,"Renens VD, 1er Mai"
1765,8592200,"Renens VD, 1er Août"
1766,8592201,"Renens VD, 1er Mai"
1766,8592220,"Renens VD, Saugiaz"
1766,8592213,"Renens VD, Hôtel-de-Ville"
1766,8592205,"Renens VD, Borjod"
1766,8592202,"Renens VD, Avenir"
1766,8592221,"Renens VD, Sous l'Eglise"
1767,8592208,"Renens VD, Bugnon"
1767,8592212,"Renens VD, Follieu"
1767,8592222,"Renens VD, Sur-la-Croix"
1767,8592206,"Renens VD, Bourg-Dessus"
1767,8592205,"Renens VD, Borjod"
1768,8592207,"Renens VD, Broye"
1768,8592192,"Prilly, Perréaz"
1768,8592208,"Renens VD, Bugnon"
1768,8592178,"Prilly, église"
1769,8592192,"Prilly, Perréaz"
1769,8592175,"Prilly, Chasseur"
1769,8501163,Prilly-Chasseur
1769,8592176,"Prilly, Coudraie"
1770,8592030,"Lausanne, Désert"
1770,8592176,"Prilly, Coudraie"
1770,8592087,"Lausanne, Parc Rivier"
1770,8592000,"Lausanne, Bossons"
1770,8592187,"Prilly, Mont-Goulin"
1770,8592107,"Lausanne, Rapille"
1771,8592056,"Lausanne, Grattapaille"
1771,8591996,"Lausanne, Bois-Gentil"
1771,8592088,"Lausanne, Parc Vélodrome"
1771,8592087,"Lausanne, Parc Rivier"
1771,8592000,"Lausanne, Bossons"
1772,8591996,"Lausanne, Bois-Gentil"
1772,8592088,"Lausanne, Parc Vélodrome"
1773,8587357,"Lausanne, Bellevaux"
1773,8595004,"Lausanne, Entre-Bois"
1773,8592089,"Lausanne, Pavement"
1773,8592047,"Lausanne, Forêt"
1773,8592055,"Lausanne, Grangette"
1774,8592016,"Lausanne, Chocolatière"
1774,8592099,"Lausanne, Praz-Berthoud"
1774,8592137,"Lausanne, Vivarium"
1774,8592066,"Lausanne, Libellules"
1774,8591997,"Lausanne, Boissonnet"
1774,8592054,"Lausanne, Grand Vennes"
1774,8591977,"Lausanne, Abeilles"
1775,8592048,"Lausanne, Fourmi"
1775,8591977,"Lausanne, Abeilles"
1775,8592099,"Lausanne, Praz-Berthoud"
1776,8592128,"Lausanne, Vennes"
1777,8592101,"Lausanne, Praz-Séchaud"
1778,8592101,"Lausanne, Praz-Séchaud"
1779,8579247,"Montblesson, Centenaire"
1780,8579249,"Pully, Monts-de-Pully"
1781,8579249,"Pully, Monts-de-Pully"
1782,8592194,"Pully, Ravessoud"
1783,8504172,"Savigny, Claie-aux-Moines"
1784,8592233,"Savigny, Publoz"
1785,8592233,"Savigny, Publoz"
1786,8592228,"Savigny, ancienne poste"
1787,8504173,"Savigny, centre"
1788,8592232,"Savigny, Palaz"
1789,8592230,"Savigny, Crêt-Rouge"
1790,8582772,"Forel (Lavaux), Grand Champ"
1791,8591975,"Forel (Lavaux), Les Confréries"
1792,8579251,"Forel (Lavaux), Cornes de Cerf"
1792,8591975,"Forel (Lavaux), Les Confréries"
1793,8579251,"Forel (Lavaux), Cornes de Cerf"
1794,8582199,"Les Thioleyres, village"
1795,8582199,"Les Thioleyres, village"
1796,8582199,"Les Thioleyres, village"
1797,8578927,"Palézieux, zone ind. En Grivaz"
1797,8570440,"Palézieux, gare"
1797,8504014,Palézieux
1798,8504014,Palézieux
1798,8570440,"Palézieux, gare"
1799,8570442,"Ecoteaux, laiterie"
1800,8570442,"Ecoteaux, laiterie"
1801,8570120,"Bière, casernes"
1802,8570120,"Bière, casernes"
1803,8570121,"Bière, La Tuilerie"
1804,8570122,"Bière, Praz-Béné"
1805,8501085,Ballens-Froideville
1806,8501082,Chardonney-Château
1807,8501082,Chardonney-Château
1808,8501092,Bussy-Chardonney
1809,8570074,"Vaux-sur-Morges, village"
1810,8570074,"Vaux-sur-Morges, village"
1811,8592285,"Vaux-sur-Morges, bif. Bugnon"
1812,8504655,"Monnaz, village"
1813,8570098,"Echichens, Haute-Pierre"
1814,8570098,"Echichens, Haute-Pierre"
1815,8504652,"Echichens, village"
1816,8592255,"Lonay, Vozy"
1817,8588875,"Echandens, centre"
1818,8595213,"Echandens, collège"
1818,8588875,"Echandens, centre"
1819,8592244,"Echandens, Chocolatière"
1820,8592248,"Ecublens VD, Larges Pièces"
1821,8591960,"Ecublens VD, Veilloud"
1821,8591957,"Ecublens VD, Stand"
1821,8591955,"Ecublens VD, place de sport"
1822,8501217,"Chavannes-près-Renens, Crochy"
1822,8591960,"Ecublens VD, Veilloud"
1822,8591948,"Ecublens VD, Croset"
1822,8591955,"Ecublens VD, place de sport"
1823,8501217,"Chavannes-près-Renens, Crochy"
1823,8593869,"Chavannes-près-Renens,Glycines"
1823,8593868,"Chavannes-près-Renens,Concorde"
1823,8591933,"Chavannes-près-Renens, Planta"
1824,8592209,"Renens VD, Censuy"
1824,8592200,"Renens VD, 1er Août"
1824,8588983,"Renens VD, gare sud"
1824,8593866,"Chavannes-p.-R., Préfaully"
1824,8593869,"Chavannes-près-Renens,Glycines"
1825,8592209,"Renens VD, Censuy"
1825,8592221,"Renens VD, Sous l'Eglise"
1825,8592218,"Renens VD, Caudray"
1825,8592213,"Renens VD, Hôtel-de-Ville"
1826,8592223,"Renens VD, village"
1827,8592211,"Renens VD, Florissant"
1827,8592180,"Prilly, Grand Vigne"
1827,8592207,"Renens VD, Broye"
1828,8592181,"Prilly, Huttins"
1828,8592173,"Prilly, centre"
1828,8592180,"Prilly, Grand Vigne"
1828,8501162,Union-Prilly
1829,8592181,"Prilly, Huttins"
1829,8591993,"Lausanne, Béthanie"
1829,8592094,"Lausanne, Pierrefleur"
1829,8592087,"Lausanne, Parc Rivier"
1829,8501162,Union-Prilly
1829,8592107,"Lausanne, Rapille"
1829,8592124,"Lausanne, Valency"
1830,8592087,"Lausanne, Parc Rivier"
1830,8591987,"Lausanne, Beau-Site"
1830,8592057,"Lausanne, Grey"
1830,8592056,"Lausanne, Grattapaille"
1830,8592088,"Lausanne, Parc Vélodrome"
1830,8591992,"Lausanne, Bergières"
1830,8591998,"Lausanne, Boisy"
1830,8592094,"Lausanne, Pierrefleur"
1831,8592085,"Lausanne, Oiseaux"
1831,8592132,"Lausanne, Vieux-Moulin"
1831,8592088,"Lausanne, Parc Vélodrome"
1831,8592003,"Lausanne, casernes"
1831,8592116,"Lausanne, Stade Olympique"
1832,8592111,"Lausanne, Rouvraie"
1832,8592132,"Lausanne, Vieux-Moulin"
1832,8592082,"Lausanne, Motte"
1832,8592047,"Lausanne, Forêt"
1832,8592085,"Lausanne, Oiseaux"
1832,8592003,"Lausanne, casernes"
1833,8592067,"Lausanne, Lisière"
1833,8592016,"Lausanne, Chocolatière"
1833,8592115,"Lausanne, Signal"
1834,8592131,"Lausanne, Victor-Ruffy"
1834,8579238,"Lausanne, Sallaz"
1834,8592099,"Lausanne, Praz-Berthoud"
1834,8592118,"Lausanne, St-Etienne"
1835,8592008,"Lausanne, Champ-Rond"
1835,8592127,"Lausanne, Valmont"
1835,8592118,"Lausanne, St-Etienne"
1835,8592131,"Lausanne, Victor-Ruffy"
1835,8592099,"Lausanne, Praz-Berthoud"
1836,8579245,"Lausanne, Le Foyer"
1836,8592025,"Lausanne, Craivavers"
1836,8592127,"Lausanne, Valmont"
1837,8592002,"Lausanne, Boveresses"
1837,8579246,"Lausanne, Rovéréaz"
1838,8579247,"Montblesson, Centenaire"
1839,8579248,"Pully, Trois-Chasseurs"
1839,8579249,"Pully, Monts-de-Pully"
1840,8592194,"Pully, Ravessoud"
1841,8504172,"Savigny, Claie-aux-Moines"
1842,8592228,"Savigny, ancienne poste"
1843,8504173,"Savigny, centre"
1844,8504173,"Savigny, centre"
1845,8582773,"Forel (Lavaux), Le Plane"
1846,8582773,"Forel (Lavaux), Le Plane"
1847,8582772,"Forel (Lavaux), Grand Champ"
1848,8579251,"Forel (Lavaux), Cornes de Cerf"
1849,8579251,"Forel (Lavaux), Cornes de Cerf"
1850,8582199,"Les Thioleyres, village"
1851,8582199,"Les Thioleyres, village"
1852,8504690,"Granges (Veveyse), Sokymat"
1852,8577713,"Granges (Veveyse), Le Rupan"
1853,8504690,"Granges (Veveyse), Sokymat"
1853,8577713,"Granges (Veveyse), Le Rupan"
1854,8577713,"Granges (Veveyse), Le Rupan"
1855,8570440,"Palézieux, gare"
1856,8570442,"Ecoteaux, laiterie"
1857,8570442,"Ecoteaux, laiterie"
1858,8570122,"Bière, Praz-Béné"
1859,8501092,Bussy-Chardonney
1860,8501080,Le Marais
1861,8501091,Vufflens-le-Château
1862,8504655,"Monnaz, village"
1863,8570072,"Monnaz, Tresy"
1863,8504655,"Monnaz, village"
1864,8504652,"Echichens, village"
1864,8592246,"Echichens, église"
1865,8504652,"Echichens, village"
1865,8592246,"Echichens, église"
1866,8592254,"Lonay, parc"
1867,8592250,"Lonay, église"
1867,8592249,"Lonay, Carouge"
1868,8592249,"Lonay, Carouge"
1868,8592255,"Lonay, Vozy"
1869,8592255,"Lonay, Vozy"
1870,8588872,"Denges, Les Oches"
1870,8588874,"Echandens, poste"
1870,8501045,Denges-Echandens
1871,8591946,"Ecublens VD, Cocarde"
1871,8591951,"Ecublens VD, Motty"
1871,8591954,"Ecublens VD, Perrettes"
1871,8591961,"Ecublens VD, Villars"
1871,8591960,"Ecublens VD, Veilloud"
1872,8588873,"Ecublens VD, Pontet"
1872,8501216,"Ecublens VD, Cerisaie"
1872,8591960,"Ecublens VD, Veilloud"
1873,8593867,"Chavannes-près-Renens, Plaine"
1873,8594986,"Chavannes-près-Renens, Berges"
1874,8594987,"Chavannes-près-Renens, Mouline"
1874,8595602,"Chavannes-p.-R., Dorigny-Léman"
1875,8595534,"Renens VD, piscine"
1875,8595602,"Chavannes-p.-R., Dorigny-Léman"
1875,8592218,"Renens VD, Caudray"
1875,8592210,"Renens VD, Chêne"
1876,8592210,"Renens VD, Chêne"
1876,8592219,"Renens VD, rue du Lac"
1877,8592049,"Prilly, Galicien"
1877,8592180,"Prilly, Grand Vigne"
1877,8592217,"Renens VD, Perrelet"
1877,8592179,"Prilly, Flumeaux"
1877,8518452,Prilly-Malley
1878,8592180,"Prilly, Grand Vigne"
1878,8518452,Prilly-Malley
1878,8592049,"Prilly, Galicien"
1878,8592103,"Lausanne, Prélaz-les-Roses"
1879,8592032,"Lausanne, Dranse"
1879,8592124,"Lausanne, Valency"
1879,8592078,"Lausanne, Montétan"
1879,8501161,Montétan
1879,8592102,"Lausanne, Prélaz"
1880,8591984,"Lausanne, Beaulieu"
1880,8592035,"Lausanne, Ecole Commerce"
1880,8592032,"Lausanne, Dranse"
1880,8591980,"Lausanne, Aubépines"
1880,8592119,"Lausanne, St-Paul"
1880,8592104,"Lausanne, Presbytère"
1880,8591992,"Lausanne, Bergières"
1881,8591984,"Lausanne, Beaulieu"
1881,8592085,"Lausanne, Oiseaux"
1881,8592033,"Lausanne, Druey"
1881,8592003,"Lausanne, casernes"
1881,8592104,"Lausanne, Presbytère"
1881,8592060,"Lausanne, Beaulieu-Jomini"
1881,8592076,"Lausanne, Mont-Blanc"
1881,8592135,"Lausanne, Vinet"
1881,8592034,"Lausanne, Druey-Collège"
1881,8592035,"Lausanne, Ecole Commerce"
1882,8592091,"Lausanne, Petit Château"
1882,8592053,"Lausanne, Grande-Borde"
1882,8592033,"Lausanne, Druey"
1882,8592111,"Lausanne, Rouvraie"
1882,8592085,"Lausanne, Oiseaux"
1882,8592034,"Lausanne, Druey-Collège"
1882,8592003,"Lausanne, casernes"
1882,8592138,"Lausanne, Vulliemin"
1882,8592071,"Lausanne, Mémise"
1882,8592059,"Lausanne, Hermitage"
1883,8592059,"Lausanne, Hermitage"
1883,8592091,"Lausanne, Petit Château"
1883,8592115,"Lausanne, Signal"
1883,8592067,"Lausanne, Lisière"
1883,8592017,"Lausanne, CHUV"
1884,8592131,"Lausanne, Victor-Ruffy"
1884,8592126,"Lausanne, Vallonnette"
1885,8592112,"Lausanne, Rozavère"
1885,8592008,"Lausanne, Champ-Rond"
1885,8592131,"Lausanne, Victor-Ruffy"
1885,8592126,"Lausanne, Vallonnette"
1885,8592031,"Lausanne, Devin"
1886,8592025,"Lausanne, Craivavers"
1886,8592065,"Lausanne, Les Chavannes"
1886,8592112,"Lausanne, Rozavère"
1887,8579248,"Pully, Trois-Chasseurs"
1888,8579248,"Pully, Trois-Chasseurs"
1889,8592194,"Pully, Ravessoud"
1890,8592228,"Savigny, ancienne poste"
1891,8504173,"Savigny, centre"
1892,8504173,"Savigny, centre"
1893,8582775,"Forel (Lavaux), La Chercotte"
1894,8582773,"Forel (Lavaux), Le Plane"
1895,8582772,"Forel (Lavaux), Grand Champ"
1896,8582772,"Forel (Lavaux), Grand Champ"
1897,8582199,"Les Thioleyres, village"
1898,8582199,"Les Thioleyres, village"
1899,8582199,"Les Thioleyres, village"
1900,8577714,"Granges (Veveyse), La Cuvigne"
1901,8577713,"Granges (Veveyse), Le Rupan"
1901,8577714,"Granges (Veveyse), La Cuvigne"
1902,8577714,"Granges (Veveyse), La Cuvigne"
1902,8577713,"Granges (Veveyse), Le Rupan"
1903,8579195,"Bossonnens, gare"
1904,8579195,"Bossonnens, gare"
1905,8593759,"Tatroz, village"
1906,8570020,"Gimel, Côte Réviol"
1907,8579086,"Gimel, La Vernette"
1908,8579086,"Gimel, La Vernette"
1909,8570122,"Bière, Praz-Béné"
1910,8583710,"St-Livres, grande salle"
1911,8583710,"St-Livres, grande salle"
1912,8501093,Yens
1913,8501093,Yens
1914,8501093,Yens
1915,8501093,Yens
1916,8501092,Bussy-Chardonney
1917,8501080,Le Marais
1918,8501080,Le Marais
1919,8501091,Vufflens-le-Château
1920,8501091,Vufflens-le-Château
1921,8570072,"Monnaz, Tresy"
1922,8570097,"Echichens, croisée"
1922,8570071,"Echichens, Signal d'Echichens"
1923,8570071,"Echichens, Signal d'Echichens"
1923,8592269,"Morges, hôpital"
1923,8570097,"Echichens, croisée"
1923,8592246,"Echichens, église"
1924,8592269,"Morges, hôpital"
1924,8504652,"Echichens, village"
1924,8592246,"Echichens, église"
1925,8592253,"Lonay, Levant"
1925,8592251,"Lonay, Grassiaz"
1925,8501048,Lonay-Préverenges
1925,8595219,"Lonay, collège nord"
1926,8595219,"Lonay, collège nord"
1926,8592249,"Lonay, Carouge"
1926,8592250,"Lonay, église"
1926,8595218,"Lonay, gare"
1926,8501048,Lonay-Préverenges
1926,8595220,"Lonay, collège sud"
1927,8592249,"Lonay, Carouge"
1928,8592242,"Denges, village"
1929,8588872,"Denges, Les Oches"
1929,8592242,"Denges, village"
1930,8591956,"Ecublens VD, Renges"
1930,8591949,"Ecublens VD, En Enjalin"
1930,8591954,"Ecublens VD, Perrettes"
1930,8591952,"Ecublens VD, Ormet"
1931,8501215,"Ecublens VD, Bassenges"
1931,8591952,"Ecublens VD, Ormet"
1931,8591951,"Ecublens VD, Motty"
1931,8591947,"Ecublens VD, Coquerellaz"
1931,8591954,"Ecublens VD, Perrettes"
1931,8591949,"Ecublens VD, En Enjalin"
1932,8501215,"Ecublens VD, Bassenges"
1932,8579233,"Ecublens VD, EPFL (bus)"
1932,8501214,"Ecublens VD, EPFL"
1933,8501213,"Ecublens VD, UNIL-Sorge"
1933,8594986,"Chavannes-près-Renens, Berges"
1934,8595602,"Chavannes-p.-R., Dorigny-Léman"
1934,8501212,"Chavannes-p.-R., UNIL-Mouline"
1934,8501211,"Chavannes-p.-R., UNIL-Dorigny"
1934,8594987,"Chavannes-près-Renens, Mouline"
1935,8501210,"Lausanne, Bourdonnette"
1935,8501211,"Chavannes-p.-R., UNIL-Dorigny"
1935,8595602,"Chavannes-p.-R., Dorigny-Léman"
1935,8595521,"Lausanne, Bourdonnette nord"
1936,8592219,"Renens VD, rue du Lac"
1936,8592114,"Lausanne, Sablons"
1936,8501210,"Lausanne, Bourdonnette"
1936,8595521,"Lausanne, Bourdonnette nord"
1936,8592215,"Renens VD, Longemalle"
1937,8592049,"Prilly, Galicien"
1937,8592216,"Renens VD, Malley-Ouest"
1937,8592215,"Renens VD, Longemalle"
1937,8592184,"Prilly, Malley-Nord"
1937,8592114,"Lausanne, Sablons"
1937,8501209,"Lausanne, Malley"
1937,8518452,Prilly-Malley
1938,8592184,"Prilly, Malley-Nord"
1938,8501209,"Lausanne, Malley"
1938,8593844,"Lausanne,Vallée de la Jeunesse"
1938,8501208,"Lausanne, Provence"
1938,8592103,"Lausanne, Prélaz-les-Roses"
1938,8592049,"Prilly, Galicien"
1938,8518452,Prilly-Malley
1938,8592105,"Lausanne, Provence nord"
1938,8592106,"Lausanne, Provence sud"
1939,8592036,"Lausanne, Ecole des Métiers"
1939,8592022,"Lausanne, Couchirard"
1939,8501207,"Lausanne, Montelly"
1939,8592102,"Lausanne, Prélaz"
1940,8592109,"Lausanne, Recordon"
1940,8592001,"Lausanne, Boston"
1940,8592035,"Lausanne, Ecole Commerce"
1940,8591980,"Lausanne, Aubépines"
1940,8592036,"Lausanne, Ecole des Métiers"
1940,8592041,"Lausanne, EPSIC"
1940,8592119,"Lausanne, St-Paul"
1941,8592001,"Lausanne, Boston"
1941,8592035,"Lausanne, Ecole Commerce"
1941,8592098,"Lausanne, Port-Franc"
1941,8592011,"Lausanne, Chauderon-Ale"
1941,8592120,"Lausanne, St-Roch"
1941,8592010,"Lausanne, Chauderon"
1941,8592135,"Lausanne, Vinet"
1941,8501160,Lausanne-Chauderon
1941,8592060,"Lausanne, Beaulieu-Jomini"
1941,8591988,"Lausanne, Bel-Air"
1941,8592096,"Lausanne, Pont Chauderon"
1942,8592093,"Lausanne, Pierre Viret"
1942,8592113,"Lausanne, rue Neuve"
1942,8592091,"Lausanne, Petit Château"
1942,8592125,"Lausanne, Valentin"
1942,8592135,"Lausanne, Vinet"
1942,8591982,"Lausanne, Barre"
1942,8592071,"Lausanne, Mémise"
1942,8592138,"Lausanne, Vulliemin"
1942,8591988,"Lausanne, Bel-Air"
1942,8590442,"Lausanne, Riponne-M. Béjart"
1942,8504176,"Lausanne, Tunnel"
1943,8589522,"Lausanne, place du Nord"
1943,8592017,"Lausanne, CHUV"
1943,8592091,"Lausanne, Petit Château"
1943,8591982,"Lausanne, Barre"
1944,8591978,"Lausanne, Allières"
1944,8592136,"Lausanne, Virgile-Rossel"
1944,8592042,"Lausanne, Fauconnières"
1944,8592017,"Lausanne, CHUV"
1945,8579255,"Lausanne, Pont-de-Chailly"
1945,8588432,"Lausanne, Chailly-Village"
1945,8591978,"Lausanne, Allières"
1945,8592042,"Lausanne, Fauconnières"
1945,8592136,"Lausanne, Virgile-Rossel"
1946,8592171,"Pully, Bruyère"
1946,8592023,"Lausanne, Coudrette"
1946,8588432,"Lausanne, Chailly-Village"
1947,8592171,"Pully, Bruyère"
1947,8592177,"Pully, Daillettes"
1948,8588436,"Belmont-s.-L., Grands-Champs"
1949,8588436,"Belmont-s.-L., Grands-Champs"
1950,8579258,"Belmont-sur-Lausanne,Blessoney"
1951,8588438,"Lutry, Echerins"
1952,8588438,"Lutry, Echerins"
1953,8588438,"Lutry, Echerins"
1954,8582775,"Forel (Lavaux), La Chercotte"
1955,8582773,"Forel (Lavaux), Le Plane"
1956,8582773,"Forel (Lavaux), Le Plane"
1957,8582773,"Forel (Lavaux), Le Plane"
1958,8582772,"Forel (Lavaux), Grand Champ"
1959,8582772,"Forel (Lavaux), Grand Champ"
1960,8582199,"Les Thioleyres, village"
1961,8577715,"Granges (Veveyse), village"
1962,8577715,"Granges (Veveyse), village"
1963,8504060,Bossonnens
1963,8579195,"Bossonnens, gare"
1964,8593758,"Tatroz, gare"
1965,8593759,"Tatroz, village"
1966,8504062,Châtel-St-Denis
1967,8577718,"Châtel-St-Denis, gare"
1967,8504062,Châtel-St-Denis
1968,8591807,"Châtel-St-Denis, Pontille"
1969,8501855,"St-George, village"
1970,8570020,"Gimel, Côte Réviol"
1971,8579086,"Gimel, La Vernette"
1972,8583710,"St-Livres, grande salle"
1973,8583710,"St-Livres, grande salle"
1974,8583710,"St-Livres, grande salle"
1975,8570087,"Villars-sous-Yens, Le Moulin"
1976,8501093,Yens
1977,8501093,Yens
1978,8501093,Yens
1979,8501278,"Denens, Cigognes"
1980,8501278,"Denens, Cigognes"
1981,8501278,"Denens, Cigognes"
1982,8501081,Chigny
1983,8570070,Marcelin (Morges)
1984,8570070,Marcelin (Morges)
1985,8592258,"Morges, Bellevue"
1986,8592268,"Morges, Grosse-Pierre"
1986,8592274,"Morges, Pré-Reymond"
1986,8592263,"Morges, de Beausobre"
1986,8570090,"Morges, Les Pétoleyres"
1987,8588871,"Morges, Gracieuse"
1987,8592251,"Lonay, Grassiaz"
1987,8501047,Morges-St-Jean
1987,8592272,"Morges, Parc de Vertou"
1987,8570090,"Morges, Les Pétoleyres"
1987,8592259,"Morges, Bief"
1987,8592252,"Lonay, Maraîchère"
1988,8592279,"Préverenges, Taudaz"
1988,8592251,"Lonay, Grassiaz"
1988,8592259,"Morges, Bief"
1989,8592279,"Préverenges, Taudaz"
1989,8588898,"Préverenges, Capellan"
1989,8579230,"Préverenges, village"
1990,8588898,"Préverenges, Capellan"
1990,8579230,"Préverenges, village"
1991,8592242,"Denges, village"
1992,8592239,"Denges, La Pale"
1993,8594890,"Ecublens VD, Montaney"
1994,8591956,"Ecublens VD, Renges"
1994,8594890,"Ecublens VD, Montaney"
1995,8595223,"St-Sulpice VD, Parc Scient."
1996,8501214,"Ecublens VD, EPFL"
1996,8591944,"Ecublens VD, Blévallaire"
1996,8579234,"Ecublens VD, EPFL Piccard"
1996,8579233,"Ecublens VD, EPFL (bus)"
1997,8591945,"Ecublens VD, Champagne"
1997,8501213,"Ecublens VD, UNIL-Sorge"
1997,8591944,"Ecublens VD, Blévallaire"
1998,8591950,"Ecublens VD, Dorigny"
1998,8501210,"Lausanne, Bourdonnette"
1999,8501210,"Lausanne, Bourdonnette"
1999,8592114,"Lausanne, Sablons"
2000,8591995,"Lausanne, Bois de Vaux"
2000,8592114,"Lausanne, Sablons"
2001,8592080,"Lausanne, Montoie"
2001,8592106,"Lausanne, Provence sud"
2001,8593844,"Lausanne,Vallée de la Jeunesse"
2001,8501208,"Lausanne, Provence"
2001,8592021,"Lausanne, Cottages"
2002,8592021,"Lausanne, Cottages"
2002,8592064,"Lausanne, Languedoc"
2002,8591990,"Lausanne, Belvédère"
2002,8501207,"Lausanne, Montelly"
2002,8592080,"Lausanne, Montoie"
2003,8591990,"Lausanne, Belvédère"
2003,8592004,"Lausanne, Cécil"
2003,8592122,"Lausanne, Tivoli"
2003,8592064,"Lausanne, Languedoc"
2003,8592133,"Lausanne, Vigie"
2003,8592041,"Lausanne, EPSIC"
2003,8592097,"Lausanne, Pont Marc Dufour"
2004,8501160,Lausanne-Chauderon
2004,8592096,"Lausanne, Pont Chauderon"
2004,8579253,"Lausanne, Montbenon"
2004,8591988,"Lausanne, Bel-Air"
2004,8592050,"Lausanne, gare"
2004,8592004,"Lausanne, Cécil"
2004,8592134,"Lausanne, Villard"
2004,8592122,"Lausanne, Tivoli"
2004,8501181,Lausanne-Flon
2004,8591818,"Lausanne-Flon, pl. de l'Europe"
2004,8592098,"Lausanne, Port-Franc"
2004,8592133,"Lausanne, Vigie"
2005,8592113,"Lausanne, rue Neuve"
2005,8579254,"Lausanne, St-François"
2005,8579253,"Lausanne, Montbenon"
2005,8501181,Lausanne-Flon
2005,8592093,"Lausanne, Pierre Viret"
2005,8589524,"Lausanne, Rôtillon"
2005,8591988,"Lausanne, Bel-Air"
2005,8590442,"Lausanne, Riponne-M. Béjart"
2005,8591818,"Lausanne-Flon, pl. de l'Europe"
2005,8592050,"Lausanne, gare"
2005,8592095,"Lausanne, Pont Bessières"
2005,8589523,"Lausanne, Bessières"
2006,8579237,"Lausanne, Ours"
2006,8592095,"Lausanne, Pont Bessières"
2006,8592074,"Lausanne, Mon Repos"
2006,8592051,"Lausanne, Georgette"
2006,8589523,"Lausanne, Bessières"
2006,8591991,"Lausanne, Benj. Constant"
2007,8588431,"Lausanne, Béthusy"
2007,8592129,"Lausanne, Verdeil"
2007,8592009,"Lausanne, Chandolin"
2008,8588432,"Lausanne, Chailly-Village"
2008,8592129,"Lausanne, Verdeil"
2009,8588434,"Pully, La Rosiaz"
2009,8592191,"Pully, Pavillard"
2009,8592023,"Lausanne, Coudrette"
2009,8588432,"Lausanne, Chailly-Village"
2009,8592183,"Pully, Les Liaudes"
2009,8592185,"Pully, Margerol"
2010,8592177,"Pully, Daillettes"
2010,8588449,"Pully, ch. du Vallon"
2010,8588434,"Pully, La Rosiaz"
2010,8579256,"Pully, Val-Vert"
2010,8588450,"Pully, Pré Pariset"
2010,8592185,"Pully, Margerol"
2011,8593806,"Belmont-sur-Lausanne, Rouvène"
2011,8593798,"Belmont-sur-Lausanne, Burenoz"
2012,8588436,"Belmont-s.-L., Grands-Champs"
2012,8595190,"Belmont-sur-Lausanne, Malavaux"
2012,8579257,"Belmont-sur-Lausanne, centre"
2012,8593806,"Belmont-sur-Lausanne, Rouvène"
2013,8579258,"Belmont-sur-Lausanne,Blessoney"
2014,8579259,"Lutry, Landar"
2015,8588438,"Lutry, Echerins"
2016,8588438,"Lutry, Echerins"
2017,8582777,"Grandvaux, Le Tronchet"
2018,8582777,"Grandvaux, Le Tronchet"
2019,8582775,"Forel (Lavaux), La Chercotte"
2019,8582774,"Forel (Lavaux), La Chesaude"
2020,8582775,"Forel (Lavaux), La Chercotte"
2021,8582775,"Forel (Lavaux), La Chercotte"
2022,8582773,"Forel (Lavaux), Le Plane"
2023,8582772,"Forel (Lavaux), Grand Champ"
2024,8582772,"Forel (Lavaux), Grand Champ"
2025,8570569,"Puidoux, village"
2026,8582199,"Les Thioleyres, village"
2027,8577717,"Granges (Veveyse), Le Battiau"
2027,8577715,"Granges (Veveyse), village"
2028,8579194,"Bossonnens, village"
2029,8593758,"Tatroz, gare"
2030,8593760,"Remaufens, Aux Pilons"
2031,8504965,"Châtel-St-Denis, Bellière"
2032,8504965,"Châtel-St-Denis, Bellière"
2033,8504713,"Châtel-St-Denis, Fruence"
2033,8591807,"Châtel-St-Denis, Pontille"
2033,8591806,"Châtel-St-Denis, L'Epine"
2034,8504713,"Châtel-St-Denis, Fruence"
2035,8501855,"St-George, village"
2036,8501855,"St-George, village"
2037,8570018,"St-George, Côte-Malherbe"
2038,8570018,"St-George, Côte-Malherbe"
2039,8570020,"Gimel, Côte Réviol"
2040,8579086,"Gimel, La Vernette"
2041,8501872,"Gimel, Le Prunier"
2042,8570125,"Saubraz, village"
2043,8570125,"Saubraz, village"
2044,8570051,"St-Livres, village"
2045,8583710,"St-Livres, grande salle"
2046,8570088,"Lavigny, hôpital"
2047,8570086,"Villars-sous-Yens, village"
2048,8570085,"Denens, Chatagny"
2049,8501278,"Denens, Cigognes"
2050,8591836,"Morges, Patinoire"
2051,8592271,"Morges, Moulin"
2051,8570070,Marcelin (Morges)
2051,8570069,"Morges, La Tour"
2051,8591836,"Morges, Patinoire"
2051,8592264,"Morges, Delay"
2051,8592267,"Morges, Grassey"
2052,8592257,"Morges, Banc-Vert"
2052,8570089,"Morges, Pâquis"
2052,8592258,"Morges, Bellevue"
2052,8570069,"Morges, La Tour"
2053,8592268,"Morges, Grosse-Pierre"
2053,8570089,"Morges, Pâquis"
2053,8592263,"Morges, de Beausobre"
2053,8592274,"Morges, Pré-Reymond"
2053,8592276,"Morges, St-Domingue"
2053,8592260,"Morges, Blancherie"
2054,8592259,"Morges, Bief"
2054,8592272,"Morges, Parc de Vertou"
2055,8592259,"Morges, Bief"
2055,8592279,"Préverenges, Taudaz"
2056,8592279,"Préverenges, Taudaz"
2056,8579230,"Préverenges, village"
2057,8579230,"Préverenges, village"
2058,8592240,"Denges, Pierraz-Mur"
2059,8592241,"Denges, Sur les Moulins"
2059,8594988,"St-Sulpice VD, Venoge nord"
2060,8594988,"St-Sulpice VD, Venoge nord"
2060,8591959,"Ecublens VD, Champs-Courbes"
2060,8579231,"St-Sulpice VD, Venoge sud"
2061,8591959,"Ecublens VD, Champs-Courbes"
2062,8595223,"St-Sulpice VD, Parc Scient."
2062,8588157,"St-Sulpice VD, Bochet"
2062,8592226,"St-Sulpice VD, Russel"
2063,8595223,"St-Sulpice VD, Parc Scient."
2063,8592227,"St-Sulpice VD, Pâqueret"
2063,8592226,"St-Sulpice VD, Russel"
2064,8591945,"Ecublens VD, Champagne"
2064,8592227,"St-Sulpice VD, Pâqueret"
2065,8592068,"Lausanne, Maladière"
2066,8592080,"Lausanne, Montoie"
2066,8593837,"Lausanne, Maladière-Figuiers"
2066,8593838,"Lausanne, Maladière-Lac"
2066,8592044,"Lausanne, Figuiers"
2066,8592068,"Lausanne, Maladière"
2067,8592044,"Lausanne, Figuiers"
2067,8591983,"Lausanne, Batelière"
2067,8592064,"Lausanne, Languedoc"
2067,8592121,"Lausanne, Théâtre de Vidy"
2067,8592075,"Lausanne, Mont d'Or"
2067,8592110,"Lausanne, Riant-Cour"
2068,8592110,"Lausanne, Riant-Cour"
2068,8592005,"Lausanne, Cèdres"
2068,8592075,"Lausanne, Mont d'Or"
2068,8592064,"Lausanne, Languedoc"
2068,8592046,"Lausanne, Fontenay"
2069,8592050,"Lausanne, gare"
2069,8592040,"Lausanne, Epinettes"
2069,8592052,"Lausanne, Grancy"
2069,8592027,"Lausanne, Dapples"
2069,8501120,Lausanne
2070,8592052,"Lausanne, Grancy"
2070,8592079,"Lausanne, Mont-Fleuri"
2070,8592108,"Lausanne, Rasude"
2070,8592020,"Lausanne, Closelet"
2070,8592050,"Lausanne, gare"
2070,8592072,"Lausanne, Mirabeau"
2070,8591979,"Lausanne, Alpes"
2070,8501120,Lausanne
2071,8591979,"Lausanne, Alpes"
2071,8592072,"Lausanne, Mirabeau"
2071,8592074,"Lausanne, Mon Repos"
2071,8592051,"Lausanne, Georgette"
2071,8592038,"Lausanne, Eglantine"
2072,8592083,"Lausanne, Mousquines"
2072,8591999,"Lausanne, Bonne-Espérance"
2072,8592043,"Lausanne, Faverges"
2072,8592009,"Lausanne, Chandolin"
2072,8591981,"Lausanne, avenue du Léman"
2072,8592012,"Lausanne, chemin du Cap"
2072,8592129,"Lausanne, Verdeil"
2072,8592123,"Lausanne, Trabandan"
2072,8592045,"Lausanne, Floreyres"
2072,8592038,"Lausanne, Eglantine"
2073,8592196,"Pully, Roses"
2073,8592190,"Pully, Perraudettaz"
2073,8592129,"Lausanne, Verdeil"
2073,8591999,"Lausanne, Bonne-Espérance"
2073,8592045,"Lausanne, Floreyres"
2073,8592012,"Lausanne, chemin du Cap"
2073,8592183,"Pully, Les Liaudes"
2074,8592190,"Pully, Perraudettaz"
2074,8592196,"Pully, Roses"
2074,8592183,"Pully, Les Liaudes"
2075,8588450,"Pully, Pré Pariset"
2075,8588449,"Pully, ch. du Vallon"
2075,8588447,"Pully, av. de Rochettaz"
2075,8588448,"Pully, ch. des Boverattes"
2076,8593795,"Belmont-s.-L., Chaffeises"
2077,8592149,"Lutry, Corsy-Dessous"
2078,8592152,"Lutry, Corsy-Dessus"
2078,8579258,"Belmont-sur-Lausanne,Blessoney"
2079,8579259,"Lutry, Landar"
2079,8592147,"Lutry, Brûlées"
2080,8592161,"Lutry, Savoie"
2080,8588438,"Lutry, Echerins"
2081,8588438,"Lutry, Echerins"
2081,8579260,"Lutry, Croix/Lutry"
2081,8592161,"Lutry, Savoie"
2082,8579260,"Lutry, Croix/Lutry"
2083,8582777,"Grandvaux, Le Tronchet"
2084,8582777,"Grandvaux, Le Tronchet"
2084,8582776,"Forel (Lavaux), La Tuilière"
2085,8582774,"Forel (Lavaux), La Chesaude"
2086,8582775,"Forel (Lavaux), La Chercotte"
2087,8570569,"Puidoux, village"
2088,8577717,"Granges (Veveyse), Le Battiau"
2089,8577717,"Granges (Veveyse), Le Battiau"
2090,8504965,"Châtel-St-Denis, Bellière"
2091,8504965,"Châtel-St-Denis, Bellière"
2092,8591806,"Châtel-St-Denis, L'Epine"
2093,8504713,"Châtel-St-Denis, Fruence"
2094,8504713,"Châtel-St-Denis, Fruence"
2095,8570017,"St-George, Maison Neuve"
2096,8570017,"St-George, Maison Neuve"
2097,8579840,"Gimel, En Péry-Béliaux"
2098,8570021,"Gimel, Le Signal"
2099,8579086,"Gimel, La Vernette"
2100,8570127,"Gimel, bas du village"
2101,8501872,"Gimel, Le Prunier"
2102,8501871,"Montherod, village"
2103,8570051,"St-Livres, village"
2104,8583710,"St-Livres, grande salle"
2105,8570087,"Villars-sous-Yens, Le Moulin"
2106,8570087,"Villars-sous-Yens, Le Moulin"
2106,8570086,"Villars-sous-Yens, village"
2107,8570086,"Villars-sous-Yens, village"
2108,8504654,"Lussy-sur-Morges, village"
2109,8501277,Lully VD
2110,8501090,Prélionne
2110,8592270,"Morges, Les Emetaux"
2110,8570082,"Tolochenaz, La Plantaz"
2111,8592270,"Morges, Les Emetaux"
2111,8592273,"Morges, Prélionne"
2111,8570081,"Morges, Vogéaz"
2111,8501090,Prélionne
2111,8591836,"Morges, Patinoire"
2112,8501037,Morges
2112,8592266,"Morges, Gottaz"
2112,8592264,"Morges, Delay"
2112,8591836,"Morges, Patinoire"
2112,8592271,"Morges, Moulin"
2113,8570089,"Morges, Pâquis"
2113,8589247,"Morges, poste"
2113,8592278,"Morges, temple"
2113,8592277,"Morges, St-Louis"
2113,8592262,"Morges, Charpentiers"
2113,8501228,Morges CGN
2113,8501037,Morges
2113,8592261,"Morges, Casino"
2113,8570084,"Morges, gare"
2114,8592278,"Morges, temple"
2114,8592261,"Morges, Casino"
2114,8592277,"Morges, St-Louis"
2114,8570089,"Morges, Pâquis"
2114,8501228,Morges CGN
2114,8592276,"Morges, St-Domingue"
2115,8592240,"Denges, Pierraz-Mur"
2116,8592240,"Denges, Pierraz-Mur"
2117,8594988,"St-Sulpice VD, Venoge nord"
2118,8588156,"St-Sulpice VD, Laviau"
2118,8594988,"St-Sulpice VD, Venoge nord"
2118,8579231,"St-Sulpice VD, Venoge sud"
2119,8588156,"St-Sulpice VD, Laviau"
2119,8588155,"St-Sulpice VD, Chantres"
2119,8588158,"St-Sulpice VD, centre"
2120,8588157,"St-Sulpice VD, Bochet"
2120,8588158,"St-Sulpice VD, centre"
2120,8501245,St-Sulpice VD
2121,8592226,"St-Sulpice VD, Russel"
2122,8592121,"Lausanne, Théâtre de Vidy"
2123,8591989,"Lausanne, Bellerive"
2123,8592121,"Lausanne, Théâtre de Vidy"
2124,8591989,"Lausanne, Bellerive"
2124,8591985,"Lausanne, Beauregard"
2124,8592090,"Lausanne, Pêcheurs"
2125,8591985,"Lausanne, Beauregard"
2125,8592028,"Lausanne, Délices"
2125,8592026,"Lausanne, Croix d'Ouchy"
2125,8591986,"Lausanne, Beau-Rivage"
2125,8592024,"Lausanne, Cour"
2125,8592061,"Lausanne, Jordils"
2126,8592079,"Lausanne, Mont-Fleuri"
2126,8592084,"Lausanne, Musée Olympique"
2126,8592026,"Lausanne, Croix d'Ouchy"
2126,8592062,"Lausanne, Jurigoz"
2126,8592039,"Lausanne, Elysée"
2126,8592077,"Lausanne, Montchoisi"
2127,8592186,"Pully, Métairie"
2127,8592077,"Lausanne, Montchoisi"
2127,8592193,"Pully, Pierraz-Portay"
2127,8592084,"Lausanne, Musée Olympique"
2127,8592062,"Lausanne, Jurigoz"
2128,8592043,"Lausanne, Faverges"
2128,8592012,"Lausanne, chemin du Cap"
2128,8592123,"Lausanne, Trabandan"
2128,8592193,"Pully, Pierraz-Portay"
2128,8592172,"Pully, C.-F. Ramuz"
2129,8592182,"Pully, Joliette"
2129,8588442,"Pully, ch. des Osches"
2129,8592172,"Pully, C.-F. Ramuz"
2129,8592190,"Pully, Perraudettaz"
2129,8592012,"Lausanne, chemin du Cap"
2130,8592188,"Pully, Montillier"
2130,8588444,"Pully, centre"
2130,8588445,"Pully, gare"
2130,8501121,Pully
2130,8588443,"Pully, ch. du Préau"
2130,8588446,"Pully, place de la Clergère"
2130,8592190,"Pully, Perraudettaz"
2131,8588446,"Pully, place de la Clergère"
2131,8592195,"Pully, Reymondin"
2131,8593850,"Pully, Caudoz"
2131,8588447,"Pully, av. de Rochettaz"
2131,8595192,"Pully, Ruisselet"
2132,8595191,"Pully,Centre Sportif Rochettaz"
2132,8593795,"Belmont-s.-L., Chaffeises"
2133,8592145,"Lutry, avenue William"
2133,8592149,"Lutry, Corsy-Dessous"
2133,8591976,"La Conversion, gare"
2133,8592151,"Lutry, Colline"
2134,8592157,"Lutry, Marionnettes"
2134,8592152,"Lutry, Corsy-Dessus"
2134,8592145,"Lutry, avenue William"
2135,8592147,"Lutry, Brûlées"
2135,8592159,"Lutry, Ponfilet"
2135,8592153,"Lutry, Gravesse"
2136,8592146,"Lutry, Brélaz"
2136,8592153,"Lutry, Gravesse"
2137,8588452,"Lutry, Jordillon"
2137,8588451,"Lutry, Sapelle"
2138,8588452,"Lutry, Jordillon"
2139,8582778,"Grandvaux, Crêt-Mouton"
2140,8582777,"Grandvaux, Le Tronchet"
2141,8582777,"Grandvaux, Le Tronchet"
2142,8582775,"Forel (Lavaux), La Chercotte"
2143,8570569,"Puidoux, village"
2144,8570569,"Puidoux, village"
2145,8570569,"Puidoux, village"
2146,8570569,"Puidoux, village"
2147,8595678,"Attalens, Fin du Clos"
2148,8579187,"Monts-de-Corsier, Mur-Blanc"
2149,8591806,"Châtel-St-Denis, L'Epine"
2150,8570020,"Gimel, Côte Réviol"
2151,8501871,"Montherod, village"
2152,8579082,"Montherod, Battoir"
2153,8570051,"St-Livres, village"
2154,8504653,"Lavigny, café"
2155,8504653,"Lavigny, café"
2156,8570088,"Lavigny, hôpital"
2157,8570086,"Villars-sous-Yens, village"
2158,8504654,"Lussy-sur-Morges, village"
2158,8595221,"Lussy-sur-Morges, Riettaz"
2159,8595221,"Lussy-sur-Morges, Riettaz"
2160,8501277,Lully VD
2161,8501277,Lully VD
2161,8592280,"Tolochenaz, La Grillette"
2161,8570083,"Tolochenaz, pl. Audrey Hepburn"
2162,8570082,"Tolochenaz, La Plantaz"
2162,8570083,"Tolochenaz, pl. Audrey Hepburn"
2162,8592281,"Tolochenaz, Le Portail"
2163,8589249,"Morges, Riond-Bosson"
2163,8501054,La Gottaz
2164,8589248,"Morges, ch. du Bochet"
2164,8592266,"Morges, Gottaz"
2164,8589249,"Morges, Riond-Bosson"
2165,8589248,"Morges, ch. du Bochet"
2165,8501228,Morges CGN
2165,8589247,"Morges, poste"
2165,8592261,"Morges, Casino"
2166,8592240,"Denges, Pierraz-Mur"
2167,8588158,"St-Sulpice VD, centre"
2168,8592090,"Lausanne, Pêcheurs"
2169,8591986,"Lausanne, Beau-Rivage"
2169,8592086,"Lausanne, Ouchy-Olympique"
2169,8592061,"Lausanne, Jordils"
2169,8501075,Lausanne-Ouchy
2170,8592084,"Lausanne, Musée Olympique"
2171,8592084,"Lausanne, Musée Olympique"
2171,8592197,"Pully, Tour Haldimand"
2171,8592186,"Pully, Métairie"
2171,8592193,"Pully, Pierraz-Portay"
2171,8592029,"Lausanne, Denantou"
2172,8592198,"Pully, Verney"
2172,8592197,"Pully, Tour Haldimand"
2172,8592170,"Pully, Bourdonnière"
2172,8592193,"Pully, Pierraz-Portay"
2172,8592172,"Pully, C.-F. Ramuz"
2173,8592198,"Pully, Verney"
2173,8588441,"Pully, Châtaignier"
2173,8592172,"Pully, C.-F. Ramuz"
2173,8588442,"Pully, ch. des Osches"
2173,8592182,"Pully, Joliette"
2174,8588439,"Pully, port"
2174,8588443,"Pully, ch. du Préau"
2174,8501319,Pully CGN
2174,8588444,"Pully, centre"
2174,8588440,"Pully, ch. de Somais"
2174,8588445,"Pully, gare"
2175,8588439,"Pully, port"
2175,8501319,Pully CGN
2175,8592195,"Pully, Reymondin"
2175,8592199,"Pully, Vignes"
2176,8592167,"Paudex, Marronnier"
2176,8592189,"Pully, Moulins"
2176,8592168,"Paudex, Verrière"
2176,8592169,"Paudex, village"
2177,8592145,"Lutry, avenue William"
2177,8592167,"Paudex, Marronnier"
2178,8592154,"Lutry, Les Champs"
2178,8592145,"Lutry, avenue William"
2178,8592163,"Lutry, Taillepied"
2178,8592158,"Lutry, Orzens"
2178,8592148,"Lutry, Ciblerie"
2179,8592162,"Lutry, Savuit-place"
2179,8592148,"Lutry, Ciblerie"
2179,8592153,"Lutry, Gravesse"
2180,8592162,"Lutry, Savuit-place"
2180,8592153,"Lutry, Gravesse"
2181,8588452,"Lutry, Jordillon"
2182,8582779,"Grandvaux, Le Signal"
2182,8588453,"Villette (Lavaux), Pra Forni"
2182,8588452,"Lutry, Jordillon"
2183,8582779,"Grandvaux, Le Signal"
2183,8582778,"Grandvaux, Crêt-Mouton"
2184,8582777,"Grandvaux, Le Tronchet"
2185,8570568,"Puidoux, Logis du Pont"
2186,8570569,"Puidoux, village"
2187,8577717,"Granges (Veveyse), Le Battiau"
2188,8577717,"Granges (Veveyse), Le Battiau"
2189,8579187,"Monts-de-Corsier, Mur-Blanc"
2189,8504955,"Monts-de-Corsier, Banderette"
2190,8579187,"Monts-de-Corsier, Mur-Blanc"
2191,8501853,"Longirod, village"
2192,8501863,"St-Oyens, église"
2193,8579691,"Essertines-sur-Rolle,Le Pontet"
2194,8501871,"Montherod, village"
2195,8501871,"Montherod, village"
2196,8570049,"Aubonne, Sermaret"
2197,8570049,"Aubonne, Sermaret"
2198,8570050,"Lavigny, croisée de St-Livres"
2199,8504653,"Lavigny, café"
2199,8570050,"Lavigny, croisée de St-Livres"
2200,8570088,"Lavigny, hôpital"
2201,8504654,"Lussy-sur-Morges, village"
2202,8595221,"Lussy-sur-Morges, Riettaz"
2203,8501277,Lully VD
2204,8592280,"Tolochenaz, La Grillette"
2204,8592283,"Tolochenaz, Les Saux"
2205,8592283,"Tolochenaz, Les Saux"
2205,8592282,"Tolochenaz, Les Noyers"
2206,8592284,"Tolochenaz, Molliau"
2206,8589250,"Tolochenaz,cimetière de Morges"
2206,8589249,"Morges, Riond-Bosson"
2207,8592167,"Paudex, Marronnier"
2207,8592168,"Paudex, Verrière"
2208,8592150,"Lutry, Grand-Pont"
2208,8592167,"Paudex, Marronnier"
2209,8592148,"Lutry, Ciblerie"
2209,8592154,"Lutry, Les Champs"
2209,8592163,"Lutry, Taillepied"
2209,8592156,"Lutry, port"
2209,8501318,Lutry CGN
2209,8592164,"Lutry, Voisinand"
2209,8592150,"Lutry, Grand-Pont"
2210,8592160,"Lutry, Rive"
2210,8592155,"Lutry, Corniche"
2210,8592154,"Lutry, Les Champs"
2210,8592148,"Lutry, Ciblerie"
2210,8501122,Lutry
2211,8592155,"Lutry, Corniche"
2212,8588453,"Villette (Lavaux), Pra Forni"
2213,8588453,"Villette (Lavaux), Pra Forni"
2213,8582779,"Grandvaux, Le Signal"
2213,8588454,"Grandvaux, Pra Grana"
2214,8582779,"Grandvaux, Le Signal"
2214,8588454,"Grandvaux, Pra Grana"
2215,8595728,"Grandvaux, Genevrey"
2216,8582780,"Grandvaux, gare"
2217,8595731,"Riex, Mouniaz"
2218,8570568,"Puidoux, Logis du Pont"
2219,8570568,"Puidoux, Logis du Pont"
2220,8570569,"Puidoux, village"
2221,8570569,"Puidoux, village"
2222,8579191,"Attalens, La Fin"
2223,8579191,"Attalens, La Fin"
2224,8579184,"Mts-de-Corsier, Petit Hautigny"
2225,8504956,"Monts-de-Corsier, L'Hautigny"
2225,8579184,"Mts-de-Corsier, Petit Hautigny"
2226,8504956,"Monts-de-Corsier, L'Hautigny"
2227,8579187,"Monts-de-Corsier, Mur-Blanc"
2228,8501853,"Longirod, village"
2229,8501853,"Longirod, village"
2230,8579840,"Gimel, En Péry-Béliaux"
2231,8501863,"St-Oyens, église"
2232,8501863,"St-Oyens, église"
2233,8501860,"Essertines-sur-Rolle, village"
2234,8583896,"Pizy, village"
2235,8501865,"Aubonne, Bougy-St-Martin"
2236,8501865,"Aubonne, Bougy-St-Martin"
2237,8501870,"Aubonne, gare"
2238,8570050,"Lavigny, croisée de St-Livres"
2239,8570050,"Lavigny, croisée de St-Livres"
2240,8504654,"Lussy-sur-Morges, village"
2241,8592283,"Tolochenaz, Les Saux"
2242,8592282,"Tolochenaz, Les Noyers"
2242,8592283,"Tolochenaz, Les Saux"
2243,8589250,"Tolochenaz,cimetière de Morges"
2244,8592160,"Lutry, Rive"
2244,8592155,"Lutry, Corniche"
2245,8592155,"Lutry, Corniche"
2246,8501123,Villette VD
2247,8501123,Villette VD
2248,8595729,"Grandvaux, gare sud"
2248,8595728,"Grandvaux, Genevrey"
2249,8595729,"Grandvaux, gare sud"
2249,8582780,"Grandvaux, gare"
2250,8595730,"Grandvaux, Chenaux"
2251,8595731,"Riex, Mouniaz"
2252,8570560,"Epesses, Crêt-Dessus"
2253,8570560,"Epesses, Crêt-Dessus"
2254,8570567,"Puidoux-Chexbres, gare"
2255,8570568,"Puidoux, Logis du Pont"
2256,8570569,"Puidoux, village"
2257,8570569,"Puidoux, village"
2258,8570569,"Puidoux, village"
2259,8501255,Mont-Pèlerin
2260,8579191,"Attalens, La Fin"
2261,8504957,"Attalens, Perrey"
2262,8504957,"Attalens, Perrey"
2263,8504962,"Monts-de-Corsier, Longpraz"
2264,8579184,"Mts-de-Corsier, Petit Hautigny"
2264,8591902,"Monts-de-Corsier, Dautère"
2265,8579184,"Mts-de-Corsier, Petit Hautigny"
2266,8504955,"Monts-de-Corsier, Banderette"
2267,8501397,Rougemont
2268,8501854,"Marchissy, village"
2269,8501854,"Marchissy, village"
2270,8501854,"Marchissy, village"
2271,8501853,"Longirod, village"
2272,8501853,"Longirod, village"
2273,8501860,"Essertines-sur-Rolle, village"
2274,8501860,"Essertines-sur-Rolle, village"
2275,8579691,"Essertines-sur-Rolle,Le Pontet"
2275,8501860,"Essertines-sur-Rolle, village"
2276,8579691,"Essertines-sur-Rolle,Le Pontet"
2277,8501873,"Mont-sur-Rolle, Les Granges"
2278,8583896,"Pizy, village"
2279,8583896,"Pizy, village"
2280,8583458,"Aubonne, Pré-Baulan"
2281,8570045,"Aubonne, Curzilles"
2282,8501865,"Aubonne, Bougy-St-Martin"
2282,8570046,"Aubonne, hôpital"
2283,8579081,"Aubonne, Le Bornalet"
2283,8570046,"Aubonne, hôpital"
2283,8501870,"Aubonne, gare"
2284,8501867,"Aubonne, La Praz"
2284,8579081,"Aubonne, Le Bornalet"
2285,8577520,"Etoy, L'Espérance"
2285,8577555,"Etoy, Romanèche"
2286,8595646,"St-Prex, Epondaz"
2287,8589263,"St-Prex, Taillecou nord"
2288,8501123,Villette VD
2289,8501123,Villette VD
2290,8582781,"Grandvaux, Le Bougnon"
2290,8595729,"Grandvaux, gare sud"
2291,8595729,"Grandvaux, gare sud"
2291,8582780,"Grandvaux, gare"
2291,8595730,"Grandvaux, Chenaux"
2292,8595731,"Riex, Mouniaz"
2292,8595730,"Grandvaux, Chenaux"
2293,8595731,"Riex, Mouniaz"
2293,8501297,"Riex, fontaine"
2294,8570561,"Epesses, village"
2295,8570567,"Puidoux-Chexbres, gare"
2296,8504012,Puidoux-Chexbres
2296,8570567,"Puidoux-Chexbres, gare"
2297,8570566,"Puidoux, Cité-de-Sully"
2297,8570567,"Puidoux-Chexbres, gare"
2297,8504012,Puidoux-Chexbres
2298,8570566,"Puidoux, Cité-de-Sully"
2299,8570569,"Puidoux, village"
2300,8504957,"Attalens, Perrey"
2301,8504957,"Attalens, Perrey"
2302,8504962,"Monts-de-Corsier, Longpraz"
2303,8504962,"Monts-de-Corsier, Longpraz"
2304,8579184,"Mts-de-Corsier, Petit Hautigny"
2305,8504956,"Monts-de-Corsier, L'Hautigny"
2306,8501397,Rougemont
2307,8501398,Saanen
2308,8581359,"Saanen, Gemeindeverwaltung"
2309,8501854,"Marchissy, village"
2310,8501860,"Essertines-sur-Rolle, village"
2311,8501860,"Essertines-sur-Rolle, village"
2312,8501862,"Signal-de-Bougy, Parc Pré Vert"
2313,8570044,"Féchy, Cassivettes"
2314,8579081,"Aubonne, Le Bornalet"
2315,8501867,"Aubonne, La Praz"
2315,8501868,"Aubonne, La Levette"
2316,8501868,"Aubonne, La Levette"
2317,8577557,"Etoy, village"
2317,8577555,"Etoy, Romanèche"
2318,8577555,"Etoy, Romanèche"
2319,8595646,"St-Prex, Epondaz"
2320,8595646,"St-Prex, Epondaz"
2321,8595646,"St-Prex, Epondaz"
2321,8589262,"St-Prex, Taillecou sud"
2321,8589263,"St-Prex, Taillecou nord"
2322,8589262,"St-Prex, Taillecou sud"
2322,8589263,"St-Prex, Taillecou nord"
2323,8582781,"Grandvaux, Le Bougnon"
2324,8582781,"Grandvaux, Le Bougnon"
2325,8570559,"Cully, gare"
2325,8501124,Cully
2326,8501317,Cully CGN
2326,8501124,Cully
2326,8595732,"Cully, Colombaires"
2326,8570559,"Cully, gare"
2327,8501297,"Riex, fontaine"
2328,8570560,"Epesses, Crêt-Dessus"
2328,8570561,"Epesses, village"
2328,8501125,Epesses
2329,8570561,"Epesses, village"
2330,8570562,"Epesses, Chapotannaz"
2331,8570567,"Puidoux-Chexbres, gare"
2332,8570566,"Puidoux, Cité-de-Sully"
2333,8570566,"Puidoux, Cité-de-Sully"
2334,8570565,"Chexbres, Les Pergolas"
2335,8570569,"Puidoux, village"
2336,8570569,"Puidoux, village"
2337,8504958,"Jongny, Chaudette"
2338,8504958,"Jongny, Chaudette"
2339,8504962,"Monts-de-Corsier, Longpraz"
2340,8504962,"Monts-de-Corsier, Longpraz"
2341,8504962,"Monts-de-Corsier, Longpraz"
2342,8591902,"Monts-de-Corsier, Dautère"
2343,8504070,Montbovon
2344,8501198,La Palaz
2345,8501396,Flendruz
2346,8501397,Rougemont
2347,8501397,Rougemont
2348,8501397,Rougemont
2349,8501397,Rougemont
2350,8501856,"Le Vaud, place du Battoir"
2351,8570016,"Le Vaud, zoo"
2352,8501860,"Essertines-sur-Rolle, village"
2353,8579690,"Mont-sur-Rolle, Sans Souci"
2354,8579690,"Mont-sur-Rolle, Sans Souci"
2354,8501873,"Mont-sur-Rolle, Les Granges"
2355,8501862,"Signal-de-Bougy, Parc Pré Vert"
2356,8501862,"Signal-de-Bougy, Parc Pré Vert"
2357,8570043,"Bougy-Villars, Dessus"
2358,8570044,"Féchy, Cassivettes"
2359,8581659,"Féchy, Auberge"
2360,8579080,"Aubonne, Roveray"
2360,8501868,"Aubonne, La Levette"
2361,8577558,"Etoy, Bas du Rossé"
2362,8577558,"Etoy, Bas du Rossé"
2363,8589254,"St-Prex, ch. des Etourneaux"
2364,8595646,"St-Prex, Epondaz"
2364,8589253,"St-Prex, gare nord"
2365,8595646,"St-Prex, Epondaz"
2365,8501036,St-Prex
2365,8589258,"St-Prex, Motty"
2365,8589253,"St-Prex, gare nord"
2365,8589262,"St-Prex, Taillecou sud"
2365,8589252,"St-Prex, Penguey"
2365,8589251,"St-Prex, place d'Armes"
2366,8501124,Cully
2367,8501125,Epesses
2368,8570562,"Epesses, Chapotannaz"
2369,8570565,"Chexbres, Les Pergolas"
2370,8570565,"Chexbres, Les Pergolas"
2371,8570564,"Chexbres-Village, gare"
2372,8570564,"Chexbres-Village, gare"
2373,8501127,St-Saphorin
2374,8501255,Mont-Pèlerin
2375,8501255,Mont-Pèlerin
2376,8504728,"Jongny, Reposoir"
2377,8579181,"Jongny, Combette"
2378,8504958,"Jongny, Chaudette"
2379,8504961,"Corsier-sur-Vevey, La Chaux"
2380,8579170,"Fenil-sur-Corsier, vieille rte"
2380,8579169,"Fenil-sur-Corsier,zone indust."
2381,8579170,"Fenil-sur-Corsier, vieille rte"
2382,8501284,Les Chevalleyres
2383,8501284,Les Chevalleyres
2384,8504070,Montbovon
2385,8501198,La Palaz
2386,8501198,La Palaz
2387,8501396,Flendruz
2388,8501396,Flendruz
2389,8501396,Flendruz
2390,8530032,Rougemont BDGAG
2391,8530032,Rougemont BDGAG
2391,8501397,Rougemont
2392,8530032,Rougemont BDGAG
2392,8501397,Rougemont
2393,8501398,Saanen
2394,8501398,Saanen
2395,8501856,"Le Vaud, place du Battoir"
2396,8501856,"Le Vaud, place du Battoir"
2397,8570016,"Le Vaud, zoo"
2398,8500731,"Tartegnin, village"
2399,8500736,"Essertines-sur-Rolle, Bugnaux"
2400,8500736,"Essertines-sur-Rolle, Bugnaux"
2401,8579222,"Mont-sur-Rolle, Mont-Dessus"
2401,8500736,"Essertines-sur-Rolle, Bugnaux"
2402,8500734,"Bougy-Villars, centre"
2403,8500734,"Bougy-Villars, centre"
2404,8570043,"Bougy-Villars, Dessus"
2405,8570043,"Bougy-Villars, Dessus"
2406,8581659,"Féchy, Auberge"
2407,8583527,"Féchy, En Burnens"
2408,8579079,"Allaman, gare"
2409,8579080,"Aubonne, Roveray"
2410,8577562,"Etoy, En Folliar"
2411,8501042,Etoy
2412,8589256,"Etoy, En Pallatex"
2413,8589255,"St-Prex, ch. des Oiseaux"
2414,8589257,"St-Prex, Scierie"
2414,8589254,"St-Prex, ch. des Etourneaux"
2414,8595222,"St-Prex, Aux Saugettes"
2415,8589254,"St-Prex, ch. des Etourneaux"
2416,8501321,St-Prex CGN
2416,8589251,"St-Prex, place d'Armes"
2417,8570562,"Epesses, Chapotannaz"
2418,8570563,"Chexbres, Bellevue"
2419,8570564,"Chexbres-Village, gare"
2419,8501757,"Chexbres, poste"
2419,8579747,"Chexbres, EMS La Colline"
2419,8504013,Chexbres-Village
2419,8570563,"Chexbres, Bellevue"
2420,8504013,Chexbres-Village
2420,8570564,"Chexbres-Village, gare"
2421,8501126,Rivaz
2422,8501127,St-Saphorin
2423,8593912,"Corseaux, Félix-Cornu"
2424,8501255,Mont-Pèlerin
2425,8501254,La Baume
2425,8501255,Mont-Pèlerin
2426,8501255,Mont-Pèlerin
2426,8501254,La Baume
2427,8504728,"Jongny, Reposoir"
2427,8504966,"Jongny, village"
2428,8504728,"Jongny, Reposoir"
2428,8579181,"Jongny, Combette"
2429,8579166,"Corsier-sur-Vevey, Omballes"
2429,8504954,Nant VD
2430,8579166,"Corsier-sur-Vevey, Omballes"
2430,8579168,"Fenil-sur-Corsier, Pont"
2431,8579168,"Fenil-sur-Corsier, Pont"
2431,8579169,"Fenil-sur-Corsier,zone indust."
2431,8595114,"St-Légier, Pont de Fenil"
2432,8579170,"Fenil-sur-Corsier, vieille rte"
2433,8501284,Les Chevalleyres
2434,8501284,Les Chevalleyres
2435,8501288,Les Pléiades
2435,8501287,Lally
2436,8501287,Lally
2437,8570570,Bains-de-l'Alliaz
2438,8504070,Montbovon
2439,8501198,La Palaz
2440,8501198,La Palaz
2441,8501396,Flendruz
2442,8501396,Flendruz
2443,8501064,Bassins
2444,8582137,"Bassins, Piscine"
2445,8582137,"Bassins, Piscine"
2446,8582137,"Bassins, Piscine"
2447,8501856,"Le Vaud, place du Battoir"
2448,8500731,"Tartegnin, village"
2449,8500736,"Essertines-sur-Rolle, Bugnaux"
2450,8579222,"Mont-sur-Rolle, Mont-Dessus"
2450,8500736,"Essertines-sur-Rolle, Bugnaux"
2451,8579222,"Mont-sur-Rolle, Mont-Dessus"
2451,8579223,"Mont-sur-Rolle, La Ferme"
2451,8579224,"Mont-sur-Rolle,Maison de Ville"
2451,8500737,"Mont-sur-Rolle, église"
2452,8579224,"Mont-sur-Rolle,Maison de Ville"
2452,8500737,"Mont-sur-Rolle, église"
2453,8570041,"Perroy, Vinicole"
2454,8583527,"Féchy, En Burnens"
2455,8579079,"Allaman, gare"
2456,8579079,"Allaman, gare"
2456,8501035,Allaman
2457,8501035,Allaman
2458,8577591,"Buchillon, Grands-Bois"
2458,8577590,"Etoy, En Bellevue"
2459,8594454,"Etoy, Noyer-Girod"
2459,8594453,"Etoy, Grosses-Terres"
2459,8577592,"Buchillon, collège"
2460,8577593,"Etoy, Chenalette"
2460,8577592,"Buchillon, collège"
2460,8577604,"Etoy, gare"
2460,8501042,Etoy
2461,8577593,"Etoy, Chenalette"
2461,8501042,Etoy
2462,8589257,"St-Prex, Scierie"
2463,8589257,"St-Prex, Scierie"
2464,8579747,"Chexbres, EMS La Colline"
2465,8501126,Rivaz
2465,8501243,Rivaz-St-Saphorin
2466,8501126,Rivaz
2467,8501127,St-Saphorin
2468,8501127,St-Saphorin
2469,8579154,"Corseaux, Gonelles"
2470,8579155,"Corseaux, Chatacombe"
2471,8593912,"Corseaux, Félix-Cornu"
2472,8501253,Chardonne-Jongny
2472,8501254,La Baume
2473,8501253,Chardonne-Jongny
2473,8501254,La Baume
2473,8501252,Beau-Site
2473,8504712,Chardonne
2474,8504712,Chardonne
2474,8504966,"Jongny, village"
2474,8504959,"Corsier-sur-Vevey, Châtillon"
2475,8579172,"Corsier-sur-Vevey, Champ-Ban"
2475,8504959,"Corsier-sur-Vevey, Châtillon"
2475,8579165,"Corsier-sur-Vevey, Chaplin"
2475,8579173,"Corsier-sur-Vevey, Sous-Nant"
2476,8579166,"Corsier-sur-Vevey, Omballes"
2476,8579165,"Corsier-sur-Vevey, Chaplin"
2476,8595116,"St-Légier, tennis"
2476,8504954,Nant VD
2476,8579173,"Corsier-sur-Vevey, Sous-Nant"
2477,8595117,"St-Légier, La Veyre-d'En-Haut"
2477,8579166,"Corsier-sur-Vevey, Omballes"
2477,8595116,"St-Légier, tennis"
2478,8595112,"St-Légier, Grangette"
2478,8595114,"St-Légier, Pont de Fenil"
2479,8595968,"St-Légier, Bottassioux"
2480,8595874,"St-Légier, poste"
2481,8501283,Tusinge
2482,8501284,Les Chevalleyres
2483,8501284,Les Chevalleyres
2484,8501287,Lally
2485,8501287,Lally
2486,8570571,"Villard-sur-Chamby, poste"
2487,8501393,La Chaudanne-Les Moulins
2488,8570618,"Château-d'Oex, gare"
2489,8570618,"Château-d'Oex, gare"
2490,8501198,La Palaz
2491,8501198,La Palaz
2492,8501395,Château-d'Oex-Les Granges
2493,8501388,Les Combes
2494,8501388,Les Combes
2495,8501060,La Cure
2496,8501060,La Cure
2497,8501850,"Bassins, Tillette"
2498,8582137,"Bassins, Piscine"
2499,8582137,"Bassins, Piscine"
2500,8582794,"Burtigny, Les Oches"
2500,8501852,"Burtigny, village"
2501,8570029,"Burtigny, Le Battoir"
2502,8500738,"Gilly, village"
2503,8570056,"Tartegnin, La Vissenche"
2504,8570056,"Tartegnin, La Vissenche"
2505,8500731,"Tartegnin, village"
2506,8500731,"Tartegnin, village"
2507,8583530,"Rolle, déchetterie"
2508,8500737,"Mont-sur-Rolle, église"
2509,8583424,"Mont-sur-Rolle, Jeune Suisse"
2509,8500737,"Mont-sur-Rolle, église"
2510,8570039,"Perroy, Couronnette"
2511,8570040,"Perroy, village"
2512,8570040,"Perroy, village"
2512,8570041,"Perroy, Vinicole"
2513,8501035,Allaman
2514,8577591,"Buchillon, Grands-Bois"
2515,8577591,"Buchillon, Grands-Bois"
2516,8577592,"Buchillon, collège"
2517,8577593,"Etoy, Chenalette"
2517,8577592,"Buchillon, collège"
2518,8577593,"Etoy, Chenalette"
2519,8501243,Rivaz-St-Saphorin
2519,8501126,Rivaz
2520,8501127,St-Saphorin
2521,8579154,"Corseaux, Gonelles"
2522,8579153,"Corseaux, Châno"
2522,8579154,"Corseaux, Gonelles"
2522,8579155,"Corseaux, Chatacombe"
2523,8504040,Corseaux-Cornalles
2523,8593912,"Corseaux, Félix-Cornu"
2523,8579151,"Corseaux, Cerisiers"
2523,8579157,"Corseaux, Grand-Pin"
2523,8579152,"Corseaux, Maraîche"
2524,8504040,Corseaux-Cornalles
2524,8579158,"Corseaux, collège"
2524,8579151,"Corseaux, Cerisiers"
2524,8579150,"Corseaux, Donnaz"
2524,8579157,"Corseaux, Grand-Pin"
2524,8579159,"Corseaux, village"
2525,8501251,Corseaux
2525,8579159,"Corseaux, village"
2525,8501252,Beau-Site
2526,8504964,"Corsier-sur-Vevey, Châtelard"
2526,8504967,"Corseaux, Délassement"
2526,8579160,"Corsier-sur-Vevey, village"
2527,8593994,"Vevey, Gilamont"
2527,8579162,"Corsier-sur-Vevey, Riant-Mont"
2527,8501260,Gilamont
2527,8595961,"Vevey, Ancienne-Corderie"
2527,8593988,"Vevey, Crosets"
2527,8504964,"Corsier-sur-Vevey, Châtelard"
2527,8504963,"Corsier-sur-Vevey, Terreaux"
2527,8593999,"Vevey, Pra"
2527,8593990,"Vevey, Dévin"
2528,8593999,"Vevey, Pra"
2528,8593994,"Vevey, Gilamont"
2528,8593990,"Vevey, Dévin"
2528,8501260,Gilamont
2529,8595111,"St-Légier, Ferreyres"
2529,8595113,"St-Légier, Plateau de la Veyre"
2530,8501280,St-Légier-Gare
2530,8595968,"St-Légier, Bottassioux"
2530,8595111,"St-Légier, Ferreyres"
2531,8595874,"St-Légier, poste"
2531,8501280,St-Légier-Gare
2531,8501264,St-Légier-Village
2532,8501264,St-Légier-Village
2532,8501265,La Chiésaz
2532,8595969,"St-Légier, collège La Chiésaz"
2533,8501265,La Chiésaz
2534,8501283,Tusinge
2535,8530261,Bois-de-Chexbres
2535,8501284,Les Chevalleyres
2535,8501283,Tusinge
2536,8501286,Ondallaz-L'Alliaz
2537,8570571,"Villard-sur-Chamby, poste"
2538,8570571,"Villard-sur-Chamby, poste"
2539,8501391,La Tine
2540,8501393,La Chaudanne-Les Moulins
2541,8570619,"Château-d'Oex, Le Petit-Pré"
2542,8570619,"Château-d'Oex, Le Petit-Pré"
2543,8530674,Château-d'Oex TCPM/TPBM
2543,8570618,"Château-d'Oex, gare"
2544,8501198,La Palaz
2545,8501198,La Palaz
2546,8501395,Château-d'Oex-Les Granges
2547,8501395,Château-d'Oex-Les Granges
2548,8501388,Les Combes
2549,8501060,La Cure
2550,8501063,Arzier
2551,8501063,Arzier
2552,8501850,"Bassins, Tillette"
2553,8501850,"Bassins, Tillette"
2554,8570029,"Burtigny, Le Battoir"
2555,8583433,"Gilly, église"
2556,8570056,"Tartegnin, La Vissenche"
2557,8500731,"Tartegnin, village"
2558,8583530,"Rolle, déchetterie"
2558,8583111,"Rolle, La Pièce-Etraz"
2558,8570055,"Rolle, La Pièce"
2559,8570034,"Rolle, gare nord"
2559,8583682,"Rolle, Les Eaux"
2559,8501033,Rolle
2560,8570034,"Rolle, gare nord"
2560,8583682,"Rolle, Les Eaux"
2560,8501033,Rolle
2560,8582696,"Rolle, Les Vernes"
2561,8570037,"Rolle, Bellefontaine"
2561,8582676,"Mont-sur-Rolle, Bellefontaine"
2561,8582696,"Rolle, Les Vernes"
2561,8570036,"Rolle, hôpital"
2562,8570039,"Perroy, Couronnette"
2563,8570040,"Perroy, village"
2564,8570040,"Perroy, village"
2565,8570041,"Perroy, Vinicole"
2566,8583527,"Féchy, En Burnens"
2567,8583527,"Féchy, En Burnens"
2568,8577591,"Buchillon, Grands-Bois"
2569,8579151,"Corseaux, Cerisiers"
2569,8504040,Corseaux-Cornalles
2569,8579152,"Corseaux, Maraîche"
2570,8579150,"Corseaux, Donnaz"
2570,8504040,Corseaux-Cornalles
2570,8579151,"Corseaux, Cerisiers"
2571,8593982,"Vevey, Bergère"
2571,8593992,"Vevey, funiculaire"
2571,8501250,Vevey (funi)
2571,8594640,"Vevey, Gutenberg"
2572,8594641,"Vevey, Nord"
2572,8594640,"Vevey, Gutenberg"
2572,8593979,"Vevey, av. de Corsier"
2572,8504964,"Corsier-sur-Vevey, Châtelard"
2572,8593989,"Vevey, Copet"
2572,8579160,"Corsier-sur-Vevey, village"
2572,8588746,"Vevey, L'Union"
2572,8595962,"Vevey, Moulins"
2572,8593996,"Vevey, Marronniers"
2573,8593990,"Vevey, Dévin"
2573,8593989,"Vevey, Copet"
2573,8595119,"Vevey, Mémise"
2573,8504964,"Corsier-sur-Vevey, Châtelard"
2573,8595962,"Vevey, Moulins"
2573,8593999,"Vevey, Pra"
2573,8595120,"Vevey, Palud"
2573,8595961,"Vevey, Ancienne-Corderie"
2573,8593984,"Vevey, Charmontey"
2573,8593988,"Vevey, Crosets"
2574,8593990,"Vevey, Dévin"
2574,8595119,"Vevey, Mémise"
2574,8593999,"Vevey, Pra"
2574,8595120,"Vevey, Palud"
2574,8501261,Clies
2574,8595118,"Vevey, Biéler"
2575,8501262,Hauteville
2575,8501263,Château-d'Hauteville
2576,8501263,Château-d'Hauteville
2576,8501280,St-Légier-Gare
2577,8501280,St-Légier-Gare
2577,8501264,St-Légier-Village
2578,8595969,"St-Légier, collège La Chiésaz"
2578,8501265,La Chiésaz
2579,8501266,Château-de-Blonay
2580,8501282,Prélaz-sur-Blonay
2580,8579213,"Blonay, gare"
2580,8501281,Blonay
2580,8501266,Château-de-Blonay
2581,8501282,Prélaz-sur-Blonay
2581,8501281,Blonay
2582,8501285,Fayaux
2583,8501286,Ondallaz-L'Alliaz
2584,8570572,"Villard-sur-Chamby, D'Zetiau"
2585,8570573,"Villard-sur-Chamby, anc. poste"
2586,8501391,La Tine
2587,8501392,Rossinière
2588,8501392,Rossinière
2589,8501348,"Les Moulins, Pont-de-Pierre"
2590,8570619,"Château-d'Oex, Le Petit-Pré"
2591,8570619,"Château-d'Oex, Le Petit-Pré"
2592,8530674,Château-d'Oex TCPM/TPBM
2593,8501395,Château-d'Oex-Les Granges
2594,8501388,Les Combes
2595,8501057,La Chèvrerie-Monteret
2596,8501063,Arzier
2597,8501063,Arzier
2598,8501063,Arzier
2599,8501063,Arzier
2600,8500738,"Gilly, village"
2601,8583433,"Gilly, église"
2602,8583111,"Rolle, La Pièce-Etraz"
2602,8582690,"Rolle, Baccara"
2602,8570055,"Rolle, La Pièce"
2603,8583465,"Rolle, Martinet"
2603,8582690,"Rolle, Baccara"
2604,8583821,"Rolle, centre ville"
2604,8583682,"Rolle, Les Eaux"
2604,8583464,"Rolle, La Prairie"
2604,8582688,"Rolle, Quatre-Communes"
2604,8583465,"Rolle, Martinet"
2605,8582696,"Rolle, Les Vernes"
2605,8583821,"Rolle, centre ville"
2605,8583682,"Rolle, Les Eaux"
2605,8570035,"Rolle, place des Tilleuls"
2606,8570037,"Rolle, Bellefontaine"
2606,8582696,"Rolle, Les Vernes"
2607,8583527,"Féchy, En Burnens"
2608,8577591,"Buchillon, Grands-Bois"
2609,8588746,"Vevey, L'Union"
2610,8594641,"Vevey, Nord"
2610,8588746,"Vevey, L'Union"
2610,8579174,"Vevey, gare"
2610,8579149,"Vevey, Marché"
2610,8594002,"Vevey, Ronjat"
2610,8595962,"Vevey, Moulins"
2610,8501200,Vevey
2610,8593998,"Vevey, poste"
2611,8593995,"Vevey, Major-Davel"
2611,8593981,"Vevey, Beau-Séjour"
2611,8595962,"Vevey, Moulins"
2611,8593984,"Vevey, Charmontey"
2611,8595120,"Vevey, Palud"
2611,8593997,"Vevey, Point du Jour"
2612,8593995,"Vevey, Major-Davel"
2612,8595120,"Vevey, Palud"
2612,8593983,"Vevey, Berges-du-Léman"
2612,8594000,"Vevey, Quatre-Vents"
2612,8594003,"Vevey, Samaritain"
2613,8501262,Hauteville
2614,8593968,"La Tour-de-Peilz, Sichoz"
2614,8593977,"La Tour-de-Peilz,rte de Blonay"
2615,8593957,"La Tour-de-Peilz, Crausaz"
2616,8593911,"Blonay, Novalles"
2616,8593909,"Blonay, Mon Désir"
2617,8593906,"Blonay, Champ Dodoz"
2617,8593910,"Blonay, Mottex"
2617,8593907,"Blonay, Champsavaux"
2617,8593905,"Blonay, Antiquaire"
2617,8593909,"Blonay, Mon Désir"
2618,8579211,"Blonay, village"
2618,8501281,Blonay
2618,8579210,"Blonay, Portaz"
2618,8579213,"Blonay, gare"
2618,8593906,"Blonay, Champ Dodoz"
2619,8501281,Blonay
2620,8579208,Brent
2621,8570573,"Villard-sur-Chamby, anc. poste"
2622,8570573,"Villard-sur-Chamby, anc. poste"
2623,8501351,Sonloup
2624,8501392,Rossinière
2625,8501393,La Chaudanne-Les Moulins
2626,8501347,"Les Moulins, village"
2627,8501348,"Les Moulins, Pont-de-Pierre"
2628,8501348,"Les Moulins, Pont-de-Pierre"
2629,8570619,"Château-d'Oex, Le Petit-Pré"
2630,8570619,"Château-d'Oex, Le Petit-Pré"
2631,8530674,Château-d'Oex TCPM/TPBM
2632,8501055,Les Pralies
2633,8501055,Les Pralies
2634,8501062,St-Cergue
2635,8501062,St-Cergue
2636,8501062,St-Cergue
2637,8501063,Arzier
2638,8501065,Le Muids
2639,8501065,Le Muids
2640,8570015,"Begnins, La Cézille"
2641,8582697,"Bursins, Bourdouzan"
2642,8570059,"Bursins, village"
2643,8583860,"Gilly, Condémines"
2643,8500738,"Gilly, village"
2643,8570059,"Bursins, village"
2644,8583860,"Gilly, Condémines"
2645,8583433,"Gilly, église"
2646,8582690,"Rolle, Baccara"
2647,8583465,"Rolle, Martinet"
2647,8582692,"Rolle, route de Gilly"
2647,8582691,"Rolle, Uttins-Maupas"
2648,8582692,"Rolle, route de Gilly"
2648,8583821,"Rolle, centre ville"
2648,8501320,Rolle CGN
2648,8583465,"Rolle, Martinet"
2649,8501248,Vevey-Marché
2650,8593987,"Vevey, Cour-au-Chantre"
2650,8579149,"Vevey, Marché"
2650,8594002,"Vevey, Ronjat"
2650,8501248,Vevey-Marché
2651,8501247,Vevey-La Tour
2651,8593981,"Vevey, Beau-Séjour"
2651,8593985,"Vevey, Clara-Haskil"
2651,8594004,"Vevey, Ste-Claire"
2651,8593991,"Vevey, Entre-Deux-Villes"
2651,8593987,"Vevey, Cour-au-Chantre"
2651,8593993,"Vevey, Hôtel de Ville"
2652,8593974,"La Tour-de-Peilz, Ile-Heureuse"
2652,8593949,"La Tour-de-Peilz, Alpes"
2652,8593991,"Vevey, Entre-Deux-Villes"
2652,8594003,"Vevey, Samaritain"
2652,8595958,"La Tour-de-Peilz, Oyonne"
2652,8593967,"La Tour-de-Peilz, Roussy"
2653,8593974,"La Tour-de-Peilz, Ile-Heureuse"
2653,8593953,"La Tour-de-Peilz, Brécheresse"
2653,8593971,"La Tour-de-Peilz, Vassin"
2653,8593966,"La Tour-de-Peilz, Perrausaz"
2654,8593968,"La Tour-de-Peilz, Sichoz"
2654,8593953,"La Tour-de-Peilz, Brécheresse"
2654,8593954,"La Tour-de-Peilz, Bulesses"
2654,8593977,"La Tour-de-Peilz,rte de Blonay"
2654,8593971,"La Tour-de-Peilz, Vassin"
2655,8593957,"La Tour-de-Peilz, Crausaz"
2655,8593958,"La Tour-de-Peilz, Doges"
2656,8593910,"Blonay, Mottex"
2656,8593909,"Blonay, Mon Désir"
2657,8593908,"Blonay, Forchex"
2657,8593910,"Blonay, Mottex"
2657,8593909,"Blonay, Mon Désir"
2658,8579210,"Blonay, Portaz"
2658,8579209,"Blonay, Planaz"
2659,8579208,Brent
2659,8579209,"Blonay, Planaz"
2660,8579208,Brent
2661,8570576,"Chamby, Brison"
2662,8570575,"Villard-sur-Chamby, Saumont"
2663,8570574,"Villard-sur-Chamby, La Cranche"
2664,8501351,Sonloup
2665,8501392,Rossinière
2666,8501392,Rossinière
2667,8501347,"Les Moulins, village"
2668,8501347,"Les Moulins, village"
2669,8501349,"Les Moulins, La Rosettaz"
2670,8501349,"Les Moulins, La Rosettaz"
2671,8501373,La Montagnette (La Braye)
2672,8501373,La Montagnette (La Braye)
2673,8501055,Les Pralies
2674,8501055,Les Pralies
2675,8501055,Les Pralies
2676,8519077,St-Cergue Les Cheseaux
2677,8519077,St-Cergue Les Cheseaux
2678,8519077,St-Cergue Les Cheseaux
2679,8501062,St-Cergue
2680,8501062,St-Cergue
2681,8501062,St-Cergue
2682,8501057,La Chèvrerie-Monteret
2683,8501058,La Joy-Clinique
2684,8501058,La Joy-Clinique
2685,8500732,"Vinzel, village"
2686,8500732,"Vinzel, village"
2687,8582697,"Bursins, Bourdouzan"
2687,8570059,"Bursins, village"
2688,8582691,"Rolle, Uttins-Maupas"
2689,8582692,"Rolle, route de Gilly"
2690,8582692,"Rolle, route de Gilly"
2691,8593950,"La Tour-de-Peilz, av. Muller"
2691,8593951,"La Tour-de-Peilz, Baumes"
2691,8593956,"La Tour-de-Peilz, centre"
2691,8593949,"La Tour-de-Peilz, Alpes"
2691,8595958,"La Tour-de-Peilz, Oyonne"
2691,8593967,"La Tour-de-Peilz, Roussy"
2692,8593975,"La Tour-de-Peilz,Mousquetaires"
2692,8593971,"La Tour-de-Peilz, Vassin"
2692,8593973,"La Tour-de-Pz,Entre-Deux-Crêts"
2692,8501201,La Tour-de-Peilz
2692,8593952,"La Tour-de-Peilz, Bel-Air"
2692,8593951,"La Tour-de-Peilz, Baumes"
2693,8593960,"La Tour-de-Peilz, Gérénaz"
2693,8595960,"La Tour-de-Peilz, Vignes"
2693,8593954,"La Tour-de-Peilz, Bulesses"
2693,8593971,"La Tour-de-Peilz, Vassin"
2693,8595959,"La Tour-de-Peilz, Pérouge"
2693,8593959,"La Tour-de-Peilz, Faraz"
2693,8593973,"La Tour-de-Pz,Entre-Deux-Crêts"
2694,8593959,"La Tour-de-Peilz, Faraz"
2694,8595959,"La Tour-de-Peilz, Pérouge"
2694,8593961,"La Tour-de-Peilz, Gregnolet"
2694,8593958,"La Tour-de-Peilz, Doges"
2694,8595960,"La Tour-de-Peilz, Vignes"
2695,8593970,"La Tour-de-Peilz, Vallon"
2696,8593913,"Chailly-Montreux, bourg"
2696,8593914,"Chailly-Montreux, Poneyre"
2696,8593970,"La Tour-de-Peilz, Vallon"
2697,8595970,"Chailly-Montreux, Chailly P+R"
2697,8579204,"Chailly-Montreux, village"
2697,8593913,"Chailly-Montreux, bourg"
2697,8579205,"Chailly-Montreux, Bonnettes"
2698,8501374,Fontanivent
2698,8579205,"Chailly-Montreux, Bonnettes"
2698,8579206,"Chailly-Montreux, Combe"
2698,8595971,"Chailly-Montreux, Rottaz"
2698,8579207,"Fontanivent, gare"
2699,8579207,"Fontanivent, gare"
2699,8583689,"Chamby, Sous Chaulin"
2699,8570578,"Chamby, Chaulin"
2700,8570576,"Chamby, Brison"
2701,8501350,Les Avants (funi)
2701,8501351,Sonloup
2701,8501377,Les Avants
2702,8501377,Les Avants
2702,8501350,Les Avants (funi)
2703,8501347,"Les Moulins, village"
2704,8501347,"Les Moulins, village"
2705,8501343,"Les Moulins, Les Communailles"
2706,8501358,La Videmanette
2707,8501055,Les Pralies
2708,8501062,St-Cergue
2709,8501062,St-Cergue
2710,8501058,La Joy-Clinique
2711,8501058,La Joy-Clinique
2712,8570015,"Begnins, La Cézille"
2713,8570014,"Begnins, scierie"
2713,8570015,"Begnins, La Cézille"
2714,8570026,"Begnins, La Chataigneraie"
2714,8570014,"Begnins, scierie"
2714,8570025,"Begnins, Bellevue"
2715,8570025,"Begnins, Bellevue"
2715,8570026,"Begnins, La Chataigneraie"
2716,8500733,"Luins, village"
2717,8500733,"Luins, village"
2718,8500733,"Luins, village"
2718,8500732,"Vinzel, village"
2719,8500732,"Vinzel, village"
2720,8582697,"Bursins, Bourdouzan"
2721,8581660,"Gilly-Bursinel, gare sud"
2722,8582692,"Rolle, route de Gilly"
2723,8593951,"La Tour-de-Peilz, Baumes"
2724,8593975,"La Tour-de-Peilz,Mousquetaires"
2724,8593976,"La Tour-de-Peilz,Portail-Blanc"
2724,8593951,"La Tour-de-Peilz, Baumes"
2724,8593969,"La Tour-de-Peilz, Sully"
2724,8593963,"La Tour-de-Peilz, La Becque"
2725,8593965,"La Tour-de-Peilz, Murets"
2725,8593969,"La Tour-de-Peilz, Sully"
2725,8595959,"La Tour-de-Peilz, Pérouge"
2725,8593972,"La Tour-de-Peilz, rte Chailly"
2725,8593976,"La Tour-de-Peilz,Portail-Blanc"
2726,8593955,"La Tour-de-Peilz, Burier"
2726,8595959,"La Tour-de-Peilz, Pérouge"
2726,8593961,"La Tour-de-Peilz, Gregnolet"
2726,8501202,Burier
2726,8593962,"La Tour-de-Peilz, gymnase"
2727,8501202,Burier
2727,8593970,"La Tour-de-Peilz, Vallon"
2727,8593962,"La Tour-de-Peilz, gymnase"
2728,8579203,"Chailly-Montreux, Saussaz"
2728,8593914,"Chailly-Montreux, Poneyre"
2728,8593970,"La Tour-de-Peilz, Vallon"
2728,8579202,Baugy
2729,8595970,"Chailly-Montreux, Chailly P+R"
2729,8579202,Baugy
2729,8579203,"Chailly-Montreux, Saussaz"
2729,8579204,"Chailly-Montreux, village"
2730,8579207,"Fontanivent, gare"
2730,8595971,"Chailly-Montreux, Rottaz"
2730,8501383,Planchamp
2730,8501374,Fontanivent
2731,8579207,"Fontanivent, gare"
2731,8583689,"Chamby, Sous Chaulin"
2732,8501376,Chamby
2732,8570577,"Chamby, poste"
2733,8501377,Les Avants
2734,8501377,Les Avants
2735,8501343,"Les Moulins, Les Communailles"
2736,8519077,St-Cergue Les Cheseaux
2737,8501062,St-Cergue
2738,8501056,Sus-Châtel
2739,8501056,Sus-Châtel
2740,8501056,Sus-Châtel
2741,8501066,Genolier
2742,8501058,La Joy-Clinique
2743,8570025,"Begnins, Bellevue"
2743,8501851,"Begnins, poste"
2744,8570013,"Begnins, Charbonnier"
2744,8501851,"Begnins, poste"
2744,8570025,"Begnins, Bellevue"
2745,8570013,"Begnins, Charbonnier"
2746,8500733,"Luins, village"
2747,8500733,"Luins, village"
2748,8583460,"Luins, Le Vernay"
2749,8583459,"Bursinel, Château"
2749,8581660,"Gilly-Bursinel, gare sud"
2749,8579649,"Bursinel, village"
2750,8593955,"La Tour-de-Peilz, Burier"
2750,8593964,"La Tour-de-Peilz, Maladaire"
2750,8501202,Burier
2751,8593964,"La Tour-de-Peilz, Maladaire"
2751,8593919,"Clarens, St-Georges"
2751,8501202,Burier
2752,8593915,"Clarens, Basset"
2752,8579202,Baugy
2753,8579199,"Clarens, Oche-Thorens"
2753,8501203,Clarens
2753,8579198,"Clarens, gare"
2753,8579202,Baugy
2753,8579200,Tavel VD
2753,8579201,"Clarens, Pertuiset"
2754,8501382,Châtelard VD
2754,8579199,"Clarens, Oche-Thorens"
2754,8579198,"Clarens, gare"
2755,8595873,"Chernex, village"
2755,8501375,Chernex
2755,8570579,"Chernex, gare"
2756,8570579,"Chernex, gare"
2756,8501375,Chernex
2756,8595873,"Chernex, village"
2757,8501385,Sendy-Sollard
2758,8519077,St-Cergue Les Cheseaux
2759,8501056,Sus-Châtel
2760,8501056,Sus-Châtel
2761,8501056,Sus-Châtel
2762,8501066,Genolier
2763,8501066,Genolier
2764,8570013,"Begnins, Charbonnier"
2765,8570013,"Begnins, Charbonnier"
2766,8583460,"Luins, Le Vernay"
2767,8581672,"Dully, St-Bonnet"
2767,8579649,"Bursinel, village"
2768,8593915,"Clarens, Basset"
2768,8593919,"Clarens, St-Georges"
2769,8593915,"Clarens, Basset"
2769,8593917,"Clarens, dépôt VMCV"
2769,8594160,"Clarens, centre"
2770,8501203,Clarens
2770,8593918,"Clarens, rue du Port"
2770,8594160,"Clarens, centre"
2770,8579197,"Clarens, Jaman"
2770,8501312,Clarens CGN
2770,8579196,"Clarens, Gambetta"
2770,8593917,"Clarens, dépôt VMCV"
2770,8579198,"Clarens, gare"
2771,8579198,"Clarens, gare"
2771,8593943,"Montreux, Vernex"
2771,8593918,"Clarens, rue du Port"
2772,8593945,"Montreux, Vuarennes"
2772,8593925,"Montreux, Centre des Congrès"
2772,8501381,Vuarennes
2772,8593943,"Montreux, Vernex"
2772,8595873,"Chernex, village"
2772,8593939,"Montreux, rue du Centre"
2772,8501390,Belmont-sur-Montreux
2772,8593922,"Montreux, Belmont"
2773,8593945,"Montreux, Vuarennes"
2773,8593934,"Montreux, Les Taux"
2773,8593939,"Montreux, rue du Centre"
2773,8595873,"Chernex, village"
2773,8501381,Vuarennes
2774,8501384,Sonzier
2775,8501384,Sonzier
2776,8501067,Givrins
2777,8501067,Givrins
2778,8501067,Givrins
2779,8501067,Givrins
2780,8501066,Genolier
2781,8501066,Genolier
2782,8570011,"Coinsins, Les Vettanes"
2783,8501857,"Vich, poste"
2784,8583432,"Gland, Communet"
2785,8500730,"Dully, Bourg d'Amont"
2785,8570061,"Dully, Sous-Dully"
2786,8570061,"Dully, Sous-Dully"
2787,8581672,"Dully, St-Bonnet"
2788,8593944,"Montreux, Vernex-Dessus"
2788,8593945,"Montreux, Vuarennes"
2788,8501300,Montreux
2788,8593928,"Montreux, Escaliers de la Gare"
2788,8593929,"Montreux, gare"
2788,8593925,"Montreux, Centre des Congrès"
2788,8593939,"Montreux, rue du Centre"
2788,8501381,Vuarennes
2788,8501077,Montreux CGN
2788,8593926,"Montreux, débarcadère"
2789,8501300,Montreux
2789,8593934,"Montreux, Les Taux"
2789,8593921,"Montreux, Ballallaz"
2789,8593945,"Montreux, Vuarennes"
2789,8593939,"Montreux, rue du Centre"
2789,8501381,Vuarennes
2789,8593942,"Montreux, Théâtre Mtx Riviera"
2789,8501380,Montreux-Collège
2789,8593928,"Montreux, Escaliers de la Gare"
2789,8593926,"Montreux, débarcadère"
2789,8593938,"Montreux, rue de la Gare"
2789,8593929,"Montreux, gare"
2789,8593932,"Montreux, Le Pont"
2789,8593944,"Montreux, Vernex-Dessus"
2789,8501077,Montreux CGN
2790,8501384,Sonzier
2790,8593932,"Montreux, Le Pont"
2791,8501308,Glion-Collège
2792,8501363,Le Tremblex
2793,8501357,Haut-de-Caux
2794,8501365,Crêt-d'y-Bau
2794,8501366,Paccot
2795,8501345,Devant-de-l'Etivaz
2796,8501067,Givrins
2797,8501067,Givrins
2798,8501067,Givrins
2799,8570010,"Coinsins, Mimorey"
2800,8501296,"Coinsins, Auberge"
2801,8570011,"Coinsins, Les Vettanes"
2802,8501857,"Vich, poste"
2803,8570033,"Vich, La Bichette"
2804,8583432,"Gland, Communet"
2805,8583432,"Gland, Communet"
2805,8581940,"Gland, Sous-les-Vignes"
2806,8581940,"Gland, Sous-les-Vignes"
2807,8583430,"Gland, Lignière-Dullive"
2808,8570061,"Dully, Sous-Dully"
2809,8570061,"Dully, Sous-Dully"
2810,8593926,"Montreux, débarcadère"
2810,8593935,"Montreux, Marché"
2810,8593931,"Montreux, La Paix"
2810,8501077,Montreux CGN
2810,8593940,"Montreux, rue du Marché"
2811,8501360,Montreux-Les Planches
2811,8593940,"Montreux, rue du Marché"
2811,8593936,"Montreux, midi"
2811,8593933,"Montreux, Les Planches"
2811,8501077,Montreux CGN
2811,8593930,"Montreux, La Corsaz"
2811,8593942,"Montreux, Théâtre Mtx Riviera"
2811,8593935,"Montreux, Marché"
2811,8593931,"Montreux, La Paix"
2811,8593941,"Montreux, rue Industrielle"
2811,8593932,"Montreux, Le Pont"
2811,8593926,"Montreux, débarcadère"
2811,8593927,"Montreux, Doyen-Bridel"
2811,8593923,"Montreux, Bon-Port"
2811,8593920,"Montreux, av. Nestlé"
2811,8593924,"Montreux, casino"
2812,8593932,"Montreux, Le Pont"
2812,8593927,"Montreux, Doyen-Bridel"
2812,8530031,Glion (funi)
2812,8501230,Glion-Alpes
2812,8593933,"Montreux, Les Planches"
2812,8593923,"Montreux, Bon-Port"
2812,8501360,Montreux-Les Planches
2812,8593936,"Montreux, midi"
2813,8501308,Glion-Collège
2813,8501370,Glion
2813,8530031,Glion (funi)
2813,8501230,Glion-Alpes
2814,8501371,Caux
2815,8501371,Caux
2816,8501357,Haut-de-Caux
2816,8501364,Les Echets
2817,8501369,Rochers-de-Naye
2818,8501701,"L'Etivaz, Le Bouraz"
2819,8501067,Givrins
2820,8501067,Givrins
2821,8570010,"Coinsins, Mimorey"
2822,8501296,"Coinsins, Auberge"
2823,8501296,"Coinsins, Auberge"
2824,8570033,"Vich, La Bichette"
2825,8583431,"Gland, Les Tuillières"
2825,8501333,"Gland, Grand-Champ"
2826,8570032,"Gland, Mont-Blanc/Dôle"
2826,8570031,"Gland, poste"
2826,8501333,"Gland, Grand-Champ"
2826,8581927,"Gland, Borgeaud"
2826,8583431,"Gland, Les Tuillières"
2827,8570031,"Gland, poste"
2827,8581935,"Gland, gare sud"
2827,8570030,"Gland, gare nord"
2827,8501031,Gland
2827,8581940,"Gland, Sous-les-Vignes"
2828,8583803,"Gland, Perron/Fleurs"
2828,8581936,"Gland, Montoly"
2829,8583430,"Gland, Lignière-Dullive"
2830,8583430,"Gland, Lignière-Dullive"
2831,8593924,"Montreux, casino"
2831,8593923,"Montreux, Bon-Port"
2832,8592618,Collonge (funi)
2832,8593946,"Territet, av. Riviera"
2832,8593947,"Territet, gare"
2832,8501313,Territet CGN
2832,8501301,Territet
2832,8593923,"Montreux, Bon-Port"
2832,8530673,Territet (funi)
2833,8501361,Toveyre
2833,8501301,Territet
2833,8593947,"Territet, gare"
2833,8501362,Valmont
2833,8592618,Collonge (funi)
2833,8530673,Territet (funi)
2833,8501313,Territet CGN
2834,8501700,Bains-de-l'Etivaz
2835,8501068,Trélex
2836,8501068,Trélex
2837,8501068,Trélex
2838,8501333,"Gland, Grand-Champ"
2839,8570032,"Gland, Mont-Blanc/Dôle"
2840,8570031,"Gland, poste"
2841,8594161,"Gland, Mont Blanc sud"
2841,8501031,Gland
2841,8581935,"Gland, gare sud"
2841,8570030,"Gland, gare nord"
2841,8570031,"Gland, poste"
2842,8581930,"Gland, Mauverney"
2842,8583803,"Gland, Perron/Fleurs"
2843,8583804,"Gland, Perron/Riant-Coteau"
2843,8581928,"Gland, Riant-Coteau"
2844,8583804,"Gland, Perron/Riant-Coteau"
2845,8501313,Territet CGN
2845,8594005,"Veytaux, Bonivard"
2845,8530673,Territet (funi)
2845,8593948,"Territet, L'Eaudine"
2846,8501361,Toveyre
2847,8501700,Bains-de-l'Etivaz
2848,8501763,"L'Etivaz, anc. poste"
2849,8501763,"L'Etivaz, anc. poste"
2850,8570007,"Gingins, ouest"
2851,8570007,"Gingins, ouest"
2852,8570007,"Gingins, ouest"
2853,8501967,"Gingins, poste"
2854,8501967,"Gingins, poste"
2855,8501967,"Gingins, poste"
2856,8501068,Trélex
2857,8501068,Trélex
2858,8501068,Trélex
2859,8570009,"Duillier, croisée de Trélex"
2860,8570009,"Duillier, croisée de Trélex"
2861,8570009,"Duillier, croisée de Trélex"
2861,8501289,"Duillier, centre communal"
2862,8501289,"Duillier, centre communal"
2863,8570032,"Gland, Mont-Blanc/Dôle"
2864,8594161,"Gland, Mont Blanc sud"
2865,8594161,"Gland, Mont Blanc sud"
2866,8594161,"Gland, Mont Blanc sud"
2867,8581928,"Gland, Riant-Coteau"
2868,8501302,Veytaux-Chillon
2868,8594007,"Veytaux, gare"
2868,8594005,"Veytaux, Bonivard"
2869,8594007,"Veytaux, gare"
2870,8501799,"La Lécherette, poste"
2871,8501763,"L'Etivaz, anc. poste"
2872,8501966,"Chéserex, poste"
2873,8501966,"Chéserex, poste"
2874,8501967,"Gingins, poste"
2874,8570007,"Gingins, ouest"
2875,8501068,Trélex
2876,8501289,"Duillier, centre communal"
2877,8501289,"Duillier, centre communal"
2878,8588683,"Prangins, Tour d'Eau"
2879,8588683,"Prangins, Tour d'Eau"
2880,8501234,Château-de-Chillon
2880,8594006,"Veytaux, château de Chillon"
2881,8501966,"Chéserex, poste"
2882,8501966,"Chéserex, poste"
2883,8501966,"Chéserex, poste"
2884,8570007,"Gingins, ouest"
2885,8501967,"Gingins, poste"
2886,8570005,"Signy, centre commercial"
2887,8501069,L'Asse
2888,8594008,"Veytaux, Grandchamp"
2889,8580603,"Chéserex, Au Courtillet"
2889,8501966,"Chéserex, poste"
2889,8570006,"Chéserex, A l'Oche"
2890,8570006,"Chéserex, A l'Oche"
2891,8501968,"Grens, village"
2892,8570005,"Signy, centre commercial"
2893,8501069,L'Asse
2894,8501053,La Vuarpillière
2895,8501733,Changins
2896,8588679,"Prangins, La Tuilière"
2896,8588683,"Prangins, Tour d'Eau"
2897,8588680,"Prangins, La Bruyère"
2897,8588681,"Prangins, Les Morettes"
2897,8588683,"Prangins, Tour d'Eau"
2897,8595653,"Prangins, Bénex-Dessus"
2898,8593777,"Villeneuve VD, Clos du Moulin"
2899,8594008,"Veytaux, Grandchamp"
2900,8580603,"Chéserex, Au Courtillet"
2901,8501968,"Grens, village"
2902,8501053,La Vuarpillière
2903,8501053,La Vuarpillière
2904,8593884,"Nyon, chemin du Reposoir"
2905,8593887,"Nyon, Le Groseillier"
2905,8593873,"Nyon, Bel Automne"
2905,8593898,"Nyon, rte de Saint-Cergue"
2906,8593878,"Nyon, Chantemerle"
2907,8588678,"Prangins, Sus-Gare"
2907,8588674,"Prangins, Les Mélèzes"
2907,8588675,"Prangins, gare"
2908,8588680,"Prangins, La Bruyère"
2908,8595589,"Prangins, Les Abériaux"
2908,8588677,"Prangins, Musée national"
2909,8588685,"Prangins, hôpital"
2909,8595589,"Prangins, Les Abériaux"
2910,8570581,"Villeneuve VD, gare"
2910,8501314,Villeneuve CGN
2910,8501303,Villeneuve
2910,8593778,"Villeneuve VD, La Plage"
2911,8501303,Villeneuve
2912,8595179,"Villeneuve VD, Carroz-Devant"
2913,8595179,"Villeneuve VD, Carroz-Devant"
2914,8579315,La Rippe
2915,8501968,"Grens, village"
2916,8501970,"Signy, village"
2916,8501969,"Signy, Le Glassey"
2917,8501970,"Signy, village"
2918,8595905,"Eysins, Terre-Bonne nord"
2919,8593884,"Nyon, chemin du Reposoir"
2919,8595598,"Nyon, Petite Prairie"
2919,8570002,"Nyon, rte de Signy"
2919,8593885,"Nyon, La Levratte"
2919,8501059,Les Plantaz
2920,8593887,"Nyon, Le Groseillier"
2920,8593885,"Nyon, La Levratte"
2920,8593884,"Nyon, chemin du Reposoir"
2920,8593873,"Nyon, Bel Automne"
2920,8501059,Les Plantaz
2920,8593886,"Nyon, La Paix"
2920,8593898,"Nyon, rte de Saint-Cergue"
2920,8593879,"Nyon, chemin de Bourgogne"
2920,8593881,"Nyon, chemin des Plantaz"
2921,8593878,"Nyon, Chantemerle"
2921,8588672,"Prangins, Pont de la Redoute"
2921,8593881,"Nyon, chemin des Plantaz"
2921,8593897,"Nyon, rte de l'Etraz"
2921,8570008,"Nyon, La Redoute"
2921,8593886,"Nyon, La Paix"
2922,8588672,"Prangins, Pont de la Redoute"
2923,8595589,"Prangins, Les Abériaux"
2923,8588671,"Prangins, Sadex"
2924,8595589,"Prangins, Les Abériaux"
2925,8595589,"Prangins, Les Abériaux"
2926,8579185,"Villeneuve VD, Eau-Froide"
2926,8501314,Villeneuve CGN
2927,8595177,"Villeneuve VD, Pré au Comte"
2927,8570581,"Villeneuve VD, gare"
2927,8595178,"Villeneuve VD, route d'Arvel"
2927,8501303,Villeneuve
2927,8501314,Villeneuve CGN
2927,8595187,"Villeneuve VD, Pré du Bruit"
2928,8595179,"Villeneuve VD, Carroz-Devant"
2928,8595187,"Villeneuve VD, Pré du Bruit"
2928,8595178,"Villeneuve VD, route d'Arvel"
2929,8501792,"Col-des-Mosses, poste"
2930,8501792,"Col-des-Mosses, poste"
2931,8501792,"Col-des-Mosses, poste"
2932,8579315,La Rippe
2933,8579315,La Rippe
2934,8579315,La Rippe
2935,8579312,"Borex, centre"
2936,8501968,"Grens, village"
2937,8579308,"Eysins, est"
2937,8595175,"Eysins, Petit-Eysins"
2938,8595905,"Eysins, Terre-Bonne nord"
2938,8593888,"Nyon, Les Jouvencelles"
2938,8593901,"Nyon, Tattes d'Oie"
2938,8595596,"Nyon, Fontaine"
2939,8593893,"Nyon, route de Divonne"
2939,8570002,"Nyon, rte de Signy"
2939,8593891,"Nyon, Marens"
2939,8593901,"Nyon, Tattes d'Oie"
2939,8593885,"Nyon, La Levratte"
2939,8595596,"Nyon, Fontaine"
2940,8570001,"Nyon, ch. Monastier"
2940,8501030,Nyon
2940,8579305,"Nyon, CESSOUEST"
2940,8593885,"Nyon, La Levratte"
2940,8593891,"Nyon, Marens"
2941,8501030,Nyon
2941,8570000,"Nyon, gare"
2941,8593890,"Nyon, Mafroi"
2941,8593883,"Nyon, chemin du Vallon"
2941,8593899,"Nyon, rue St-Jean"
2941,8593897,"Nyon, rte de l'Etraz"
2942,8595599,"Nyon, Usine à Gaz"
2942,8593883,"Nyon, chemin du Vallon"
2942,8588670,"Prangins, La Banderolle"
2942,8593890,"Nyon, Mafroi"
2943,8575508,"Bouveret, Aquaparc"
2944,8570587,"Noville, poste"
2945,8579185,"Villeneuve VD, Eau-Froide"
2946,8595186,"Villeneuve VD, Pré Jaquet"
2947,8595180,"Villeneuve VD, rte du Grammont"
2947,8595179,"Villeneuve VD, Carroz-Devant"
2947,8595186,"Villeneuve VD, Pré Jaquet"
2948,8501346,"Les Mosses, église"
2949,8501792,"Col-des-Mosses, poste"
2950,8579315,La Rippe
2951,8579315,La Rippe
2952,8579313,"Borex, école intercommunale"
2953,8579312,"Borex, centre"
2954,8579308,"Eysins, est"
2954,8579309,"Eysins, centre"
2955,8594847,"Nyon, Terre-Bonne"
2955,8593895,"Nyon, route du Boiron"
2955,8579308,"Eysins, est"
2955,8595202,"Nyon, Terre-Bonne sud"
2956,8593893,"Nyon, route de Divonne"
2956,8593895,"Nyon, route du Boiron"
2956,8593876,"Nyon, ch. Valmont"
2956,8593901,"Nyon, Tattes d'Oie"
2956,8593882,"Nyon, chemin des Tines"
2957,8593893,"Nyon, route de Divonne"
2957,8593901,"Nyon, Tattes d'Oie"
2957,8593896,"Nyon, route du Stand"
2957,8579306,"Nyon, hôpital"
2958,8595597,"Nyon, Martavaux"
2958,8593880,"Nyon, chemin des Pensées"
2958,8579305,"Nyon, CESSOUEST"
2958,8593874,"Nyon, centre ville"
2958,8501030,Nyon
2959,8570000,"Nyon, gare"
2959,8593899,"Nyon, rue St-Jean"
2959,8501030,Nyon
2959,8593892,"Nyon, Petit Perdtemps"
2959,8593874,"Nyon, centre ville"
2959,8593880,"Nyon, chemin des Pensées"
2960,8593899,"Nyon, rue St-Jean"
2960,8501227,Nyon CGN
2960,8595599,"Nyon, Usine à Gaz"
2961,8579183,"Bouveret, Swiss Vapeur Parc"
2961,8575508,"Bouveret, Aquaparc"
2962,8570582,"Villeneuve VD,Pré des Fourches"
2963,8595184,"Villeneuve VD, rte des Paquays"
2963,8595185,"Villeneuve VD, industrie"
2964,8595184,"Villeneuve VD, rte des Paquays"
2964,8595183,"Villeneuve VD, centre comm."
2964,8595181,"Villeneuve VD, sous le viaduc"
2964,8595182,"Villeneuve VD, Pré Neuf"
2965,8501346,"Les Mosses, église"
2966,8579315,La Rippe
2967,8595174,"Crassier, Ferme du Château"
2968,8595174,"Crassier, Ferme du Château"
2969,8579313,"Borex, école intercommunale"
2970,8579312,"Borex, centre"
2970,8593870,"Borex, Le Chanelet"
2971,8593870,"Borex, Le Chanelet"
2972,8579309,"Eysins, centre"
2973,8593895,"Nyon, route du Boiron"
2974,8595597,"Nyon, Martavaux"
2975,8593880,"Nyon, chemin des Pensées"
2975,8588656,"Nyon, plage"
2976,8588658,"Nyon, Conservatoire"
2976,8588656,"Nyon, plage"
2976,8593880,"Nyon, chemin des Pensées"
2977,8530739,"Bouveret, village"
2977,8582428,"Bouveret, Le Colibri"
2978,8582428,"Bouveret, Le Colibri"
2979,8582428,"Bouveret, Le Colibri"
2980,8570587,"Noville, poste"
2981,8570587,"Noville, poste"
2982,8570587,"Noville, poste"
2983,8570584,"Rennaz, motel"
2984,8570584,"Rennaz, motel"
2984,8570583,"Rennaz, centre commercial"
2985,8595184,"Villeneuve VD, rte des Paquays"
2985,8570583,"Rennaz, centre commercial"
2986,8595184,"Villeneuve VD, rte des Paquays"
2987,8579314,"Crassier, Ancienne Gare"
2987,8588935,"Crassier, Levrioux"
2988,8593870,"Borex, Le Chanelet"
2989,8579310,Arnex-sur-Nyon
2990,8579309,"Eysins, centre"
2991,8588660,"Nyon, Colovray"
2992,8588659,"Nyon, route de Genève"
2992,8588660,"Nyon, Colovray"
2993,8582428,"Bouveret, Le Colibri"
2994,8582428,"Bouveret, Le Colibri"
2995,8570587,"Noville, poste"
2996,8570584,"Rennaz, motel"
2996,8570585,"Rennaz, village"
2997,8501758,"La Comballaz, poste"
2998,8588935,"Crassier, Levrioux"
2999,8588935,"Crassier, Levrioux"
3000,8593871,"Crans-près-Céligny, Les Landes"
3001,8588660,"Nyon, Colovray"
3002,8570585,"Rennaz, village"
3003,8570623,"Le Sépey, La Mosse"
3004,8570621,"La Comballaz, Le Pilet"
3005,8570621,"La Comballaz, Le Pilet"
3006,8588935,"Crassier, Levrioux"
3007,8588662,"Crans-près-Céligny, La Versoix"
3008,8588662,"Crans-près-Céligny, La Versoix"
3009,8593871,"Crans-près-Céligny, Les Landes"
3010,8530740,"Les Evouettes, village"
3011,8570623,"Le Sépey, La Mosse"
3012,8595502,"Crans-près-Céligny, Châtillon"
3013,8595502,"Crans-près-Céligny, Châtillon"
3013,8588663,"Crans-près-Céligny, village"
3013,8588662,"Crans-près-Céligny, La Versoix"
3014,8588661,"Crans-près-Céligny, port"
3015,8588661,"Crans-près-Céligny, port"
3016,8530740,"Les Evouettes, village"
3017,8530740,"Les Evouettes, village"
3018,8570588,"Noville, Crebelley"
3018,8580445,"Noville, Chotron"
3019,8501304,Roche VD
3020,8591820,"Roche VD, Salines"
3021,8570623,"Le Sépey, La Mosse"
3022,8570622,"Le Sépey, Aux Caudreys"
3023,8570622,"Le Sépey, Aux Caudreys"
3024,8501475,Les Echenards
3025,8501475,Les Echenards
3026,8579316,Bogis-Bossey
3027,8579316,Bogis-Bossey
3028,8588664,"Céligny, village"
3029,8595502,"Crans-près-Céligny, Châtillon"
3030,8595502,"Crans-près-Céligny, Châtillon"
3031,8530740,"Les Evouettes, village"
3032,8530740,"Les Evouettes, village"
3033,8501304,Roche VD
3034,8591820,"Roche VD, Salines"
3034,8501304,Roche VD
3034,8591822,"Roche VD, Rotzéranne-Pré-Clos"
3035,8591822,"Roche VD, Rotzéranne-Pré-Clos"
3035,8591821,"Roche VD, musée"
3035,8591820,"Roche VD, Salines"
3036,8501975,"Le Sépey, gare/poste"
3036,8501474,Le Sépey
3037,8501474,Le Sépey
3037,8570624,"Le Sépey, La Combaz"
3037,8570623,"Le Sépey, La Mosse"
3038,8593773,Les Bovets
3039,8579316,Bogis-Bossey
3039,8594263,"Chavannes-de-Bogis, poste"
3040,8579316,Bogis-Bossey
3041,8579316,Bogis-Bossey
3042,8588664,"Céligny, village"
3043,8588664,"Céligny, village"
3043,8588665,"Céligny, gare"
3044,8501315,Céligny CGN
3045,8570590,"Chessel, poste"
3046,8570589,"Chessel, Grand-Bois"
3047,8570589,"Chessel, Grand-Bois"
3048,8501304,Roche VD
3048,8591822,"Roche VD, Rotzéranne-Pré-Clos"
3049,8591823,"Roche VD, centre commercial"
3049,8591822,"Roche VD, Rotzéranne-Pré-Clos"
3050,8595103,"Leysin, Les Esserts-Fontaine"
3050,8595102,"Leysin, Fabiola"
3051,8570627,"Cergnat, Les Noisetiers"
3052,8570626,"Cergnat, église"
3053,8501473,Les Planches (Aigle)
3053,8570632,"Les Planches (Aigle), gare"
3054,8501766,"La Forclaz VD, village"
3055,8517485,Sur-le-Buis
3056,8501476,Les Aviolats
3057,8593776,Plan Morier
3058,8501477,Vers-l'Eglise
3059,8593773,Les Bovets
3060,8593774,La Faverge
3061,8579319,"Chavannes-de-Bogis, douane"
3062,8579317,"Chavannes-de-Bogis, village"
3062,8595239,"Chavannes-de-Bogis,La Sallivaz"
3062,8594263,"Chavannes-de-Bogis, poste"
3063,8594263,"Chavannes-de-Bogis, poste"
3064,8588665,"Céligny, gare"
3065,8501315,Céligny CGN
3066,8570590,"Chessel, poste"
3067,8570589,"Chessel, Grand-Bois"
3068,8591823,"Roche VD, centre commercial"
3069,8501759,"Corbeyrier, poste"
3070,8501759,"Corbeyrier, poste"
3070,8570606,"Corbeyrier, Vers la Doey"
3071,8570606,"Corbeyrier, Vers la Doey"
3072,8595104,"Leysin, Les Alpes"
3072,8595102,"Leysin, Fabiola"
3073,8595104,"Leysin, Les Alpes"
3073,8595102,"Leysin, Fabiola"
3074,8570627,"Cergnat, Les Noisetiers"
3074,8570628,"Cergnat, Pied de Crettaz"
3075,8570627,"Cergnat, Les Noisetiers"
3076,8570632,"Les Planches (Aigle), gare"
3076,8570636,"La Forclaz VD, Vougny-Paluex"
3077,8501766,"La Forclaz VD, village"
3078,8517485,Sur-le-Buis
3079,8501476,Les Aviolats
3080,8593776,Plan Morier
3081,8593774,La Faverge
3082,8501978,"Les Diablerets, poste"
3082,8579125,"Les Diablerets, gare"
3082,8501479,Les Diablerets
3083,8530038,Les Diablerets TDI
3083,8571280,"Les Diablerets, Les Rochers"
3084,8571280,"Les Diablerets, Les Rochers"
3085,8595239,"Chavannes-de-Bogis,La Sallivaz"
3085,8579317,"Chavannes-de-Bogis, village"
3086,8587707,"Chavannes-de-B., Champs-Blancs"
3087,8588666,"Founex, est"
3088,8588666,"Founex, est"
3089,8501315,Céligny CGN
3090,8570591,"Vouvry, Porte-du-Scex"
3091,8570590,"Chessel, poste"
3092,8570589,"Chessel, Grand-Bois"
3093,8591834,"Versvey, Lac Verney Campings"
3094,8591834,"Versvey, Lac Verney Campings"
3095,8570605,"Corbeyrier, Vers-la-Crête"
3095,8583765,"Corbeyrier, En Saconnex"
3095,8501759,"Corbeyrier, poste"
3096,8583765,"Corbeyrier, En Saconnex"
3097,8595108,"Leysin, Grand Hôtel (parking)"
3097,8501482,Leysin-Feydey
3097,8595110,"Leysin,Ecole ski-Central Résid"
3097,8501974,"Leysin-Feydey, gare"
3098,8570631,"Leysin, télécabine Berneuse"
3098,8501467,Leysin TLSA
3099,8570629,"Leysin, En Crettaz"
3100,8570628,"Cergnat, Pied de Crettaz"
3101,8570628,"Cergnat, Pied de Crettaz"
3102,8570633,"La Forclaz VD, La Trappaz"
3103,8501766,"La Forclaz VD, village"
3104,8501766,"La Forclaz VD, village"
3105,8501477,Vers-l'Eglise
3106,8501479,Les Diablerets
3107,8571280,"Les Diablerets, Les Rochers"
3107,8530038,Les Diablerets TDI
3108,8571280,"Les Diablerets, Les Rochers"
3109,8571279,"Les Diablerets, Les Parchets"
3110,8595239,"Chavannes-de-Bogis,La Sallivaz"
3111,8587707,"Chavannes-de-B., Champs-Blancs"
3112,8587707,"Chavannes-de-B., Champs-Blancs"
3112,8587579,Châtaigneriaz
3113,8587579,Châtaigneriaz
3114,8587579,Châtaigneriaz
3115,8588667,"Founex, village"
3116,8588666,"Founex, est"
3117,8588666,"Founex, est"
3118,8582056,"Vouvry, Le Culat"
3119,8591834,"Versvey, Lac Verney Campings"
3120,8591834,"Versvey, Lac Verney Campings"
3121,8504661,Vers-Cort
3121,8583404,"Corbeyrier, place Champillon"
3121,8583765,"Corbeyrier, En Saconnex"
3122,8595106,"Leysin, American School"
3123,8501974,"Leysin-Feydey, gare"
3123,8595107,"Leysin, Esplanade-Kumon"
3123,8595106,"Leysin, American School"
3123,8595109,"Leysin, Grand Hôtel (virage)"
3123,8595108,"Leysin, Grand Hôtel (parking)"
3123,8501725,Versmont
3123,8595105,"Leysin, Vermont (gare)"
3123,8501483,Leysin-Grand-Hôtel
3123,8595100,"Leysin, collège"
3123,8501482,Leysin-Feydey
3124,8501974,"Leysin-Feydey, gare"
3124,8595108,"Leysin, Grand Hôtel (parking)"
3124,8501330,"Leysin, place du Marché"
3124,8501482,Leysin-Feydey
3124,8570630,"Leysin, place de la Tour d'Aï"
3124,8595100,"Leysin, collège"
3124,8595110,"Leysin,Ecole ski-Central Résid"
3124,8595101,"Leysin, La Croisée"
3125,8570630,"Leysin, place de la Tour d'Aï"
3125,8595098,"Leysin, patinoire-camping"
3126,8501469,Les Fontanelles
3127,8530038,Les Diablerets TDI
3128,8530038,Les Diablerets TDI
3129,8587707,"Chavannes-de-B., Champs-Blancs"
3130,8587579,Châtaigneriaz
3131,8587579,Châtaigneriaz
3132,8595172,"Coppet, Les Marais"
3133,8588668,"Founex, ouest"
3133,8588667,"Founex, village"
3134,8588666,"Founex, est"
3134,8588667,"Founex, village"
3134,8588668,"Founex, ouest"
3135,8588666,"Founex, est"
3136,8581298,"Vouvry, Les Bovairons"
3137,8579954,"Vouvry, piscine"
3137,8579180,"Vouvry, Riond Vert"
3137,8570593,"Vouvry, poste"
3138,8570595,"Vouvry, gare"
3139,8579379,Barges
3140,8591834,"Versvey, Lac Verney Campings"
3141,8595106,"Leysin, American School"
3142,8595106,"Leysin, American School"
3142,8595100,"Leysin, collège"
3142,8501481,Leysin-Village
3143,8595101,"Leysin, La Croisée"
3143,8595100,"Leysin, collège"
3144,8501472,Exergillod
3145,8595172,"Coppet, Les Marais"
3146,8595172,"Coppet, Les Marais"
3146,8595171,"Coppet, chemin des Rannaux"
3147,8588669,"Coppet, route du Jura"
3147,8595171,"Coppet, chemin des Rannaux"
3148,8588668,"Founex, ouest"
3149,8588668,"Founex, ouest"
3150,8570593,"Vouvry, poste"
3150,8579954,"Vouvry, piscine"
3151,8570593,"Vouvry, poste"
3152,8570595,"Vouvry, gare"
3153,8579379,Barges
3154,8587746,"Yvorne, Clos de l'Ombren"
3155,8504660,Vers-Morey
3155,8570603,"Yvorne, Le Torrent"
3156,8504660,Vers-Morey
3156,8570604,"Yvorne, Vers-Chenaux"
3157,8501199,La Roulaz
3158,8501199,La Roulaz
3159,8587581,"Commugny, Monthoux"
3160,8595171,"Coppet, chemin des Rannaux"
3161,8588669,"Coppet, route du Jura"
3161,8587576,"Coppet, Les Rojalets"
3162,8587576,"Coppet, Les Rojalets"
3163,8587746,"Yvorne, Clos de l'Ombren"
3164,8595963,"Yvorne, Socrettaz"
3164,8570603,"Yvorne, Le Torrent"
3164,8570602,"Yvorne, anc. poste"
3165,8501480,Rennaz (Leysin)
3166,8501199,La Roulaz
3167,8588298,Chavannes-des-Bois
3168,8587581,"Commugny, Monthoux"
3169,8587575,"Commugny, centre"
3170,8587575,"Commugny, centre"
3171,8587577,"Coppet, gare"
3171,8501023,Coppet
3172,8501316,Coppet CGN
3173,8593770,"Aigle, Pré d'Emoz A"
3173,8595963,"Yvorne, Socrettaz"
3174,8595963,"Yvorne, Socrettaz"
3175,8570615,"Plambuit, Hameau"
3176,8595671,"Sauverny, Martinet"
3176,8595670,"Sauverny, douane"
3177,8588298,Chavannes-des-Bois
3178,8588298,Chavannes-des-Bois
3179,8587575,"Commugny, centre"
3180,8587575,"Commugny, centre"
3181,8595173,"Coppet, route de Tannay"
3182,8595173,"Coppet, route de Tannay"
3183,8501316,Coppet CGN
3184,8581048,"Aigle, Golf"
3185,8593770,"Aigle, Pré d'Emoz A"
3185,8581047,"Aigle, Pautex"
3185,8593771,"Aigle, Pré d'Emoz B"
3186,8581046,"Aigle, rte d'Evian"
3186,8593764,"Aigle, ch. des Lieugex"
3186,8593770,"Aigle, Pré d'Emoz A"
3186,8501400,Aigle
3187,8570601,"Aigle, place du Marché"
3187,8501554,Aigle-Place-du-Marché
3187,8501400,Aigle
3187,8593763,"Aigle, av. Margencel"
3188,8501484,Aigle-Dépôt
3188,8501554,Aigle-Place-du-Marché
3188,8570601,"Aigle, place du Marché"
3189,8501179,Pont-de-Drapel
3189,8501485,Fontanney
3190,8501179,Pont-de-Drapel
3191,8501480,Rennaz (Leysin)
3192,8595664,"Versoix, Cynodrome"
3193,8587078,"Mies, giratoire"
3194,8588655,"Tannay, village"
3195,8501015,Tannay
3196,8570616,"Vionnaz, croisée d'Illarsaz"
3197,8581050,"Aigle, La Mêlée"
3198,8581049,"Aigle, Service Auto"
3199,8581048,"Aigle, Golf"
3200,8581047,"Aigle, Pautex"
3201,8501400,Aigle
3201,8593766,"Aigle, Dents-du-Midi"
3201,8581046,"Aigle, rte d'Evian"
3201,8593769,"Aigle, Novassales"
3201,8570600,"Aigle, gare"
3202,8570601,"Aigle, place du Marché"
3202,8501400,Aigle
3202,8570600,"Aigle, gare"
3202,8593763,"Aigle, av. Margencel"
3202,8593769,"Aigle, Novassales"
3202,8501554,Aigle-Place-du-Marché
3203,8570601,"Aigle, place du Marché"
3203,8501484,Aigle-Dépôt
3203,8501554,Aigle-Place-du-Marché
3204,8501485,Fontanney
3204,8501468,Aigle-Dépôt ASD
3205,8501485,Fontanney
3205,8517484,Aigle-Parc Aventure
3206,8587078,"Mies, giratoire"
3207,8587078,"Mies, giratoire"
3208,8501015,Tannay
3209,8579381,"Illarsaz, village"
3210,8593765,"Aigle, Champex"
3211,8593766,"Aigle, Dents-du-Midi"
3212,8593766,"Aigle, Dents-du-Midi"
3212,8593768,"Aigle, hôpital"
3213,8530335,Aigle-Hôpital
3213,8593768,"Aigle, hôpital"
3214,8570611,"Panex, En Meer"
3214,8570612,"Panex, Au Pomey rouge"
3214,8501777,"Panex, anc. poste"
3215,8501497,Col-de-Soud
3216,8593183,"Versoix, CS La Bécassière"
3217,8501014,Mies
3218,8501014,Mies
3219,8501014,Mies
3220,8582438,"Illarsaz, canal"
3221,8582438,"Illarsaz, canal"
3222,8593765,"Aigle, Champex"
3223,8530335,Aigle-Hôpital
3224,8501470,Verchiez
3225,8579127,"Chesières, Aiglon Collège"
3226,8530042,Villars TVG
3227,8530042,Villars TVG
3228,8501497,Col-de-Soud
3229,8595664,"Versoix, Cynodrome"
3230,8593183,"Versoix, CS La Bécassière"
3231,8593188,"Versoix, Montfleury"
3232,8501014,Mies
3233,8582438,"Illarsaz, canal"
3234,8530335,Aigle-Hôpital
3235,8501459,St-Triphon-Village
3236,8501459,St-Triphon-Village
3237,8501459,St-Triphon-Village
3238,8501461,Ollon
3239,8570609,Plan-d'Essert
3240,8570613,"Panex, La Croisée"
3241,8579129,"Chesières, La Palette"
3242,8579128,"Chesières, Hôtel du Soleil"
3243,8579127,"Chesières, Aiglon Collège"
3243,8579128,"Chesières, Hôtel du Soleil"
3244,8530042,Villars TVG
3244,8579126,"Villars-sur-Ollon, temple"
3244,8579127,"Chesières, Aiglon Collège"
3245,8530042,Villars TVG
3246,8593185,"Versoix, Ecogia"
3247,8595665,"Versoix, Collège du Léman"
3247,8593185,"Versoix, Ecogia"
3248,8593190,"Versoix, Port Choiseul"
3248,8593188,"Versoix, Montfleury"
3249,8593190,"Versoix, Port Choiseul"
3250,8582439,"Collombey, Pré Géroux"
3251,8582439,"Collombey, Pré Géroux"
3252,8501461,Ollon
3253,8501461,Ollon
3253,8570607,"Ollon VD, poste"
3254,8570608,"Ollon VD, Le Moulin"
3255,8579131,"Huémoz, Bellevue"
3256,8579130,"Chesières, cimetière"
3257,8579129,"Chesières, La Palette"
3257,8579130,"Chesières, cimetière"
3258,8579128,"Chesières, Hôtel du Soleil"
3259,8579126,"Villars-sur-Ollon, temple"
3259,8579114,"Villars-sur-Ollon, gare"
3260,8501495,Villars-sur-Ollon
3260,8579114,"Villars-sur-Ollon, gare"
3261,8593181,"Versoix, Lachenal"
3261,8593182,"Versoix, Argand"
3261,8593189,"Versoix, Pont-Céard"
3261,8501013,Pont-Céard
3262,8593190,"Versoix, Port Choiseul"
3263,8501459,St-Triphon-Village
3264,8501459,St-Triphon-Village
3265,8501461,Ollon
3266,8530355,Les Arnoux
3267,8579132,"Ollon VD, bif. rte d'Antagnes"
3267,8530355,Les Arnoux
3268,8579132,"Ollon VD, bif. rte d'Antagnes"
3269,8579131,"Huémoz, Bellevue"
3269,8501557,"Huémoz, poste"
3270,8579131,"Huémoz, Bellevue"
3270,8579130,"Chesières, cimetière"
3271,8579114,"Villars-sur-Ollon, gare"
3272,8501495,Villars-sur-Ollon
3272,8501447,Roches Grises
3272,8579114,"Villars-sur-Ollon, gare"
3273,8501494,Arveyes
3273,8501447,Roches Grises
3274,8582439,"Collombey, Pré Géroux"
3275,8582439,"Collombey, Pré Géroux"
3276,8583666,"Collombey, Reutet-Bovéry"
3277,8501458,Villy
3278,8530355,Les Arnoux
3278,8501458,Villy
3279,8530355,Les Arnoux
3280,8504687,"Antagnes, Glutières"
3281,8501558,"Huémoz, Les Combes"
3281,8501557,"Huémoz, poste"
3282,8501558,"Huémoz, Les Combes"
3283,8501494,Arveyes
3284,8501727,La Clairière
3284,8501494,Arveyes
3285,8501727,La Clairière
3286,8530040,La Barboleuse TVG
3287,8501708,"La Barboleuse, Chez Sylvie"
3288,8501708,"La Barboleuse, Chez Sylvie"
3289,8501711,Solalex
3290,8583666,"Collombey, Reutet-Bovéry"
3291,8501458,Villy
3292,8501458,Villy
3293,8501558,"Huémoz, Les Combes"
3293,8504689,"Auliens, halte"
3294,8501558,"Huémoz, Les Combes"
3295,8501493,La Barboleuse
3295,8587098,"La Barboleuse, gare"
3296,8530040,La Barboleuse TVG
3297,8530040,La Barboleuse TVG
3298,8582424,"Collombey, rte de la Fin"
3298,8579382,Collombey-le-Grand
3299,8501452,St-Triphon-Gare
3300,8504687,"Antagnes, Glutières"
3301,8504689,"Auliens, halte"
3302,8588193,Gryon Bois-Gentil
3303,8588193,Gryon Bois-Gentil
3303,8501493,La Barboleuse
3304,8530040,La Barboleuse TVG
3305,8530040,La Barboleuse TVG
3306,8501708,"La Barboleuse, Chez Sylvie"
3307,8579384,"Collombey, Corbier"
3307,8579383,"Collombey, Guinchet"
3307,8501726,Corbier
3308,8530366,Pont du Rhône
3309,8501452,St-Triphon-Gare
3310,8501452,St-Triphon-Gare
3311,8570641,"Fenalet-sur-Bex, bif. Salaz"
3312,8570642,Les Dévens
3313,8570645,"Fenalet-sur-Bex, village"
3314,8593772,Gryon-Chalméry
3315,8501492,Gryon
3316,8588193,Gryon Bois-Gentil
3317,8588193,Gryon Bois-Gentil
3318,8579384,"Collombey, Corbier"
3318,8501726,Corbier
3319,8530366,Pont du Rhône
3320,8570641,"Fenalet-sur-Bex, bif. Salaz"
3321,8570642,Les Dévens
3322,8570642,Les Dévens
3323,8570645,"Fenalet-sur-Bex, village"
3323,8580900,"Fenalet-sur-Bex, Grande Salle"
3324,8570647,"Bex, route des Monts bif."
3325,8501491,Les Posses
3326,8593772,Gryon-Chalméry
3326,8501491,Les Posses
3327,8501492,Gryon
3328,8583389,"Collombey, Centre commercial"
3329,8580669,"Bex, En Bellin"
3330,8570641,"Fenalet-sur-Bex, bif. Salaz"
3331,8570642,Les Dévens
3332,8570644,"Fenalet-sur-Bex, Le Chêne"
3332,8570643,"Fenalet-sur-Bex, Les Luisances"
3333,8501491,Les Posses
3334,8501490,Fontannaz-Seulaz
3335,8501490,Fontannaz-Seulaz
3335,8570648,"Bex, Les Véneresses"
3336,8583382,"Monthey, Aunaires"
3337,8580669,"Bex, En Bellin"
3337,8570640,Le Chavalet
3338,8501488,Bévieux
3339,8504691,"Frenières-sur-Bex, bif."
3340,8504691,"Frenières-sur-Bex, bif."
3341,8580669,"Bex, En Bellin"
3342,8580669,"Bex, En Bellin"
3343,8580669,"Bex, En Bellin"
3344,8530067,Les Salines
3344,8530246,Foyer Dents-du-Midi
3345,8530067,Les Salines
3345,8570646,Le Bévieux
3345,8501488,Bévieux
3345,8530246,Foyer Dents-du-Midi
3346,8504691,"Frenières-sur-Bex, bif."
3347,8570649,"Les Plans-sur-Bex, Le Chamois"
3347,8501778,"Les Plans-sur-Bex, poste"
3348,8501778,"Les Plans-sur-Bex, poste"
3349,8570637,"Bex, gare"
3349,8501402,Bex
3350,8530523,La Ruaz
3350,8570639,"Bex, rte d'Aigle"
3351,8570638,"Bex, temple"
3351,8501487,Bex-Place-du-Marché
3352,8530066,Grand-Moulin
3352,8582712,"Bex, route de Gryon"
3352,8530064,Bex Pont-Neuf
3353,8530067,Les Salines
3353,8530066,Grand-Moulin
3354,8501778,"Les Plans-sur-Bex, poste"
3355,8570652,"Massongex, poste"
3356,8582007,"Bex, Domaine du Rhône"
3357,8570637,"Bex, gare"
3358,8570637,"Bex, gare"
3359,8501487,Bex-Place-du-Marché
3359,8570638,"Bex, temple"
3359,8575219,"Bex, Servanne"
3360,8579970,"Bex, Résidence"
3360,8575219,"Bex, Servanne"
3360,8582712,"Bex, route de Gryon"
3360,8530064,Bex Pont-Neuf
3361,8579970,"Bex, Résidence"
3362,8501420,Massongex
3363,8501420,Massongex
3363,8582007,"Bex, Domaine du Rhône"
3363,8570652,"Massongex, poste"
3364,8582007,"Bex, Domaine du Rhône"
3365,8582007,"Bex, Domaine du Rhône"
3366,8575219,"Bex, Servanne"
3367,8575219,"Bex, Servanne"
3368,8579970,"Bex, Résidence"
3369,8501420,Massongex
3370,8570652,"Massongex, poste"
3370,8501420,Massongex
3371,8580534,"Massongex, Le Bras"
3372,8582114,"Bex, Le Châtel"
3373,8582114,"Bex, Le Châtel"
3374,8570653,"Massongex, Fontany"
3375,8570651,"Massongex, les Palluds"
3376,8582114,"Bex, Le Châtel"
3377,8582114,"Bex, Le Châtel"
3378,8582114,"Bex, Le Châtel"
3379,8570651,"Massongex, les Palluds"
3380,8570651,"Massongex, les Palluds"
3381,8580765,"St-Maurice VS, Grotte aux Fées"
3382,8582114,"Bex, Le Châtel"
3383,8580765,"St-Maurice VS, Grotte aux Fées"
3384,8580765,"St-Maurice VS, Grotte aux Fées"
3385,8570666,"Lavey-Village, poste"
3386,8570666,"Lavey-Village, poste"
3387,8501403,St-Maurice
3387,8570650,"St-Maurice VS, poste"
3388,8570650,"St-Maurice VS, poste"
3388,8581558,"St-Maurice VS, Midi"
3388,8501403,St-Maurice
3388,8570664,"St-Maurice VS, Terreaux"
3389,8570667,"Lavey-Village, Prés Râpets"
3390,8579685,"St-Maurice VS, Clinique St-Amé"
3391,8581558,"St-Maurice VS, Midi"
3392,8580651,"Lavey, Front Bastionné"
3393,8579685,"St-Maurice VS, Clinique St-Amé"
3394,8580651,"Lavey, Front Bastionné"
3395,8580651,"Lavey, Front Bastionné"
3395,8570668,"Lavey-les-Bains, place"
3396,8580222,"Les Emonnets, d'en bas"
3397,8580222,"Les Emonnets, d'en bas"
3398,8570669,"Lavey-les-Bains, Et. Thermal"
3399,8580222,"Les Emonnets, d'en bas"
3400,8580221,"Les Emonnets, d'en haut"
3400,8580222,"Les Emonnets, d'en bas"
3400,8580101,"St-Maurice VS, cantine"
3401,8580444,Epinassey
3401,8580221,"Les Emonnets, d'en haut"
3401,8580101,"St-Maurice VS, cantine"
3402,8580101,"St-Maurice VS, cantine"
3403,8587607,"Evionnaz, grande salle"
3404,8587607,"Evionnaz, grande salle"
3405,8587607,"Evionnaz, grande salle"
